{"meta":{"city":"PingtungCounty","node_count":4080,"edge_count":25415,"transit_edges":10733,"walk_edges":14682,"generated_at":"2026-04-17T08:57:04.361532+00:00"},"nodes":{"PIF254399":{"lat":22.59055527,"lon":120.6213696,"name":"金石咖啡休閒農場","routes":["605"]},"PIF261374":{"lat":22.620788,"lon":120.525794,"name":"西勢","routes":["517"]},"PIF262774":{"lat":22.620788,"lon":120.525794,"name":"西勢","routes":["517"]},"PIF266021":{"lat":22.52819,"lon":120.64934,"name":"來義國小","routes":["幸福來義9路"]},"PIF266022":{"lat":22.508015,"lon":120.581346,"name":"新來義石板屋","routes":["幸福來義1路"]},"PIF266160":{"lat":22.508015,"lon":120.581346,"name":"新來義石板屋","routes":["幸福來義1路"]},"PIF275954":{"lat":22.47448,"lon":120.45894,"name":"安泰醫院","routes":["519"]},"PIF275959":{"lat":22.47433,"lon":120.45889,"name":"安泰醫院","routes":["519"]},"PIF289702":{"lat":22.673753,"lon":120.49261,"name":"屏東公園","routes":["516"]},"PIF294671":{"lat":22.669578,"lon":120.486251,"name":"屏東轉運站","routes":["603"]},"PIF295368":{"lat":22.590727,"lon":120.621208,"name":"金石咖啡休閒農場","routes":["605"]},"PIF297663":{"lat":22.002391,"lon":120.745376,"name":"恆春轉運站","routes":["102","103","201","301","302","303","304","305","306","307","308"]},"PIF297664":{"lat":22.009175,"lon":120.727198,"name":"四溝","routes":["308"]},"PIF297665":{"lat":21.941137,"lon":120.806419,"name":"小灣","routes":["101","102"]},"PIF297666":{"lat":22.00748,"lon":120.74341,"name":"恆春監工站","routes":["201","301","302"]},"PIF297668":{"lat":21.94262,"lon":120.803,"name":"墾丁活動中心","routes":["101"]},"PIF297670":{"lat":22.669652,"lon":120.484736,"name":"屏東轉運站","routes":["505","506"]},"PIF297672":{"lat":22.67083,"lon":120.482888,"name":"博愛路口","routes":["505"]},"PIF297674":{"lat":22.670495,"lon":120.478283,"name":"光復和平路口","routes":["505","513"]},"PIF297675":{"lat":21.99778,"lon":120.744827,"name":"恆春旅遊醫院(恆南路)","routes":["101","102","305","306","307"]},"PIF297676":{"lat":22.66645,"lon":120.478588,"name":"建國和平路口","routes":["505"]},"PIF297677":{"lat":22.00906,"lon":120.74373,"name":"僑勇國小","routes":["201","301","302"]},"PIF297678":{"lat":22.66345,"lon":120.478747,"name":"崇大社區","routes":["505"]},"PIF297679":{"lat":22.660382,"lon":120.481399,"name":"復興圖書館","routes":["505"]},"PIF297680":{"lat":21.99778,"lon":120.744827,"name":"恆春旅遊醫院(恆南路)","routes":["102"]},"PIF297682":{"lat":21.994076,"lon":120.746162,"name":"五公寺","routes":["101","102","305","306","307"]},"PIF297683":{"lat":22.659745,"lon":120.477653,"name":"永大路","routes":["505"]},"PIF297684":{"lat":21.994388,"lon":120.746128,"name":"五公寺","routes":["102"]},"PIF297685":{"lat":22.662432,"lon":120.478862,"name":"崇大社區","routes":["505"]},"PIF297686":{"lat":22.666781,"lon":120.4788,"name":"建國和平路口","routes":["505"]},"PIF297687":{"lat":22.670317,"lon":120.47851,"name":"光復和平路口","routes":["505","513"]},"PIF297688":{"lat":22.670718,"lon":120.482818,"name":"博愛路口","routes":["505"]},"PIF297689":{"lat":22.01041,"lon":120.74405,"name":"恆春電信局","routes":["201","301","302"]},"PIF297690":{"lat":21.944734,"lon":120.800168,"name":"墾丁派出所","routes":["101","102"]},"PIF297697":{"lat":21.98539,"lon":120.73073,"name":"龍水","routes":["102"]},"PIF297701":{"lat":21.98539,"lon":120.73073,"name":"龍水","routes":["102","305","306","307"]},"PIF297706":{"lat":21.980283,"lon":120.729693,"name":"龍水派出所","routes":["102","305","306","307"]},"PIF297709":{"lat":21.980283,"lon":120.729693,"name":"龍水派出所","routes":["102"]},"PIF297710":{"lat":21.973238,"lon":120.730123,"name":"檳榔坑","routes":["102","307"]},"PIF297712":{"lat":21.974833,"lon":120.719575,"name":"山海路口","routes":["102","307"]},"PIF297713":{"lat":21.955637,"lon":120.713167,"name":"合界","routes":["102","305"]},"PIF297714":{"lat":21.9447,"lon":120.71251,"name":"頂白砂","routes":["102","305"]},"PIF297717":{"lat":21.936213,"lon":120.717822,"name":"白砂","routes":["102","305"]},"PIF297719":{"lat":21.932582,"lon":120.721455,"name":"銀山","routes":["102","305"]},"PIF297724":{"lat":21.928425,"lon":120.731993,"name":"下水泉","routes":["305"]},"PIF297728":{"lat":21.933289,"lon":120.73006,"name":"水泉(恆)","routes":["102"]},"PIF297730":{"lat":21.92218,"lon":120.73743,"name":"貓鼻頭","routes":["102"]},"PIF297732":{"lat":21.94106,"lon":120.74336,"name":"核三廠出水口","routes":["102"]},"PIF297733":{"lat":21.943621,"lon":120.74338,"name":"後壁湖","routes":["102"]},"PIF297735":{"lat":21.949009,"lon":120.740722,"name":"大光","routes":["102","305","306"]},"PIF297737":{"lat":22.671952,"lon":120.486323,"name":"真耶穌教會","routes":["506","515"]},"PIF297738":{"lat":22.675303,"lon":120.485071,"name":"移民署","routes":["506","515"]},"PIF297741":{"lat":22.67871,"lon":120.484857,"name":"勝利星村","routes":["506","515"]},"PIF297742":{"lat":22.679308,"lon":120.48367,"name":"中山勝利路口","routes":["506"]},"PIF297743":{"lat":22.679242,"lon":120.481862,"name":"崇仁新村","routes":["506"]},"PIF297744":{"lat":21.94632,"lon":120.790048,"name":"北墾丁","routes":["101"]},"PIF297745":{"lat":22.678913,"lon":120.476873,"name":"大同高中","routes":["506"]},"PIF297746":{"lat":21.946305,"lon":120.785099,"name":"石牛溪","routes":["101"]},"PIF297747":{"lat":22.678683,"lon":120.472818,"name":"機場路口","routes":["506"]},"PIF297748":{"lat":22.685237,"lon":120.471542,"name":"機場北路","routes":["506"]},"PIF297749":{"lat":22.688623,"lon":120.471217,"name":"廣勝路口","routes":["506","515"]},"PIF297750":{"lat":21.949643,"lon":120.778906,"name":"墾管處","routes":["101"]},"PIF297752":{"lat":22.679295,"lon":120.48432,"name":"中山勝利路口","routes":["506"]},"PIF297753":{"lat":22.678705,"lon":120.484707,"name":"勝利星村","routes":["506","515"]},"PIF297754":{"lat":22.674905,"lon":120.484985,"name":"移民署","routes":["506","515"]},"PIF297755":{"lat":22.672688,"lon":120.48584,"name":"真耶穌教會","routes":["506","515"]},"PIF297756":{"lat":21.950373,"lon":120.74064,"name":"大光國小","routes":["102"]},"PIF297757":{"lat":21.954392,"lon":120.740428,"name":"砂尾路","routes":["102"]},"PIF297758":{"lat":21.964573,"lon":120.740542,"name":"麻場","routes":["102"]},"PIF297759":{"lat":21.96675,"lon":120.74341,"name":"瓊麻館","routes":["102"]},"PIF298385":{"lat":21.969149,"lon":120.756359,"name":"恒南南光路口","routes":["101"]},"PIF298386":{"lat":21.96704,"lon":120.75743,"name":"馬鞍山","routes":["101","102"]},"PIF298388":{"lat":22.014853,"lon":120.724112,"name":"麥仔煙","routes":["308"]},"PIF298389":{"lat":22.01747,"lon":120.723288,"name":"三溝","routes":["308"]},"PIF298390":{"lat":22.023888,"lon":120.721025,"name":"頭溝","routes":["308"]},"PIF298391":{"lat":22.029752,"lon":120.718512,"name":"頂頭溝","routes":["308"]},"PIF298392":{"lat":22.036165,"lon":120.717203,"name":"茄湖","routes":["308"]},"PIF298393":{"lat":22.039845,"lon":120.717768,"name":"頂茄湖","routes":["308"]},"PIF298394":{"lat":22.048837,"lon":120.71774,"name":"茄湖營區","routes":["308"]},"PIF298395":{"lat":22.051425,"lon":120.715143,"name":"新光營區","routes":["308"]},"PIF298398":{"lat":22.048232,"lon":120.703523,"name":"龜山","routes":["308"]},"PIF298399":{"lat":22.042948,"lon":120.70107,"name":"上後灣","routes":["101","308"]},"PIF298400":{"lat":22.038901,"lon":120.696138,"name":"後灣","routes":["101","308"]},"PIF298401":{"lat":22.037103,"lon":120.691657,"name":"後灣路","routes":["308"]},"PIF298402":{"lat":22.033552,"lon":120.689168,"name":"落林","routes":["101","308"]},"PIF298403":{"lat":22.01966,"lon":120.689537,"name":"下水窟","routes":["101","308"]},"PIF298405":{"lat":21.955879,"lon":120.769178,"name":"跳石仔","routes":["101"]},"PIF298406":{"lat":21.960015,"lon":120.7649,"name":"南灣","routes":["101","102"]},"PIF298408":{"lat":21.972223,"lon":120.755246,"name":"永進社區","routes":["101"]},"PIF298409":{"lat":21.976449,"lon":120.753425,"name":"柴櫛山","routes":["101"]},"PIF298410":{"lat":21.982175,"lon":120.751124,"name":"鼻子頭","routes":["101"]},"PIF298411":{"lat":21.990099,"lon":120.747911,"name":"南興社區","routes":["101"]},"PIF298412":{"lat":21.992899,"lon":120.74679,"name":"恆春工商","routes":["101"]},"PIF298413":{"lat":22.00225,"lon":120.74533,"name":"恆春轉運站","routes":["101"]},"PIF298414":{"lat":22.00748,"lon":120.74341,"name":"恆春監工站","routes":["101"]},"PIF298415":{"lat":22.00906,"lon":120.74373,"name":"僑勇國小","routes":["101"]},"PIF298416":{"lat":22.01041,"lon":120.74405,"name":"恆春電信局","routes":["101"]},"PIF298417":{"lat":22.0141,"lon":120.7444,"name":"恆春洋蔥檢驗廠","routes":["101","201","301","302"]},"PIF298418":{"lat":22.01881,"lon":120.74406,"name":"網紗","routes":["101"]},"PIF298430":{"lat":22.004263,"lon":120.750234,"name":"東門","routes":["103","303","304"]},"PIF298431":{"lat":22.007289,"lon":120.756806,"name":"恆春出火地質公園","routes":["103","303","304"]},"PIF298432":{"lat":22.003068,"lon":120.774817,"name":"福音中心","routes":["103"]},"PIF298433":{"lat":22.00826,"lon":120.79025,"name":"大崎","routes":["103","303","304"]},"PIF298434":{"lat":22.00925,"lon":120.79528,"name":"和興路","routes":["103","303","304"]},"PIF298435":{"lat":22.0073,"lon":120.80643,"name":"春興路口","routes":["103"]},"PIF298436":{"lat":22.005207,"lon":120.809866,"name":"永靖","routes":["103","303","304"]},"PIF298437":{"lat":22.006138,"lon":120.817045,"name":"永港國小(正門)","routes":["304"]},"PIF298438":{"lat":22.007132,"lon":120.827087,"name":"下滿州","routes":["303","304"]},"PIF298441":{"lat":22.039157,"lon":120.831708,"name":"響林村","routes":["304"]},"PIF298442":{"lat":22.055628,"lon":120.825377,"name":"萬得路","routes":["304"]},"PIF298443":{"lat":22.071413,"lon":120.828658,"name":"中興部落","routes":["304"]},"PIF298444":{"lat":22.075102,"lon":120.828267,"name":"長樂國小","routes":["304"]},"PIF298445":{"lat":22.087855,"lon":120.829513,"name":"八瑤路(檳榔)","routes":["304"]},"PIF298446":{"lat":22.101455,"lon":120.835342,"name":"下分水嶺","routes":["304"]},"PIF298447":{"lat":22.102772,"lon":120.840243,"name":"分水嶺","routes":["304"]},"PIF298448":{"lat":22.115382,"lon":120.86745,"name":"片埔路口","routes":["304"]},"PIF298449":{"lat":22.133258,"lon":120.883645,"name":"港仔內","routes":["304"]},"PIF298450":{"lat":22.13498,"lon":120.887372,"name":"港仔村","routes":["304"]},"PIF298452":{"lat":21.9489,"lon":120.7791,"name":"墾管處","routes":["102"]},"PIF298454":{"lat":21.94611,"lon":120.7845,"name":"石牛溪","routes":["102"]},"PIF298455":{"lat":21.94621,"lon":120.7902,"name":"北墾丁","routes":["102"]},"PIF298457":{"lat":21.94583,"lon":120.79496,"name":"墾丁牌樓","routes":["101","102"]},"PIF298458":{"lat":22.02713,"lon":120.74205,"name":"仁壽里","routes":["201","301","302"]},"PIF298459":{"lat":22.03371,"lon":120.73936,"name":"虎頭山","routes":["201","301","302"]},"PIF298460":{"lat":22.03803,"lon":120.73725,"name":"五里亭","routes":["201","301","302"]},"PIF298461":{"lat":22.04136,"lon":120.73406,"name":"五里亭機場","routes":["201","301","302"]},"PIF298462":{"lat":22.053147,"lon":120.722151,"name":"海生館轉乘站","routes":["201","301","302"]},"PIF298463":{"lat":22.05603,"lon":120.7202,"name":"保力","routes":["201","301","302"]},"PIF298464":{"lat":22.059471,"lon":120.717409,"name":"新街(恆)","routes":["201","301","302"]},"PIF298466":{"lat":22.064525,"lon":120.714815,"name":"北保力","routes":["201","301","302"]},"PIF298467":{"lat":22.072278,"lon":120.714083,"name":"車城農會","routes":["201","301","302"]},"PIF298469":{"lat":22.072548,"lon":120.716622,"name":"車城國中","routes":["201","301","302"]},"PIF298471":{"lat":22.072019,"lon":120.72826,"name":"統埔","routes":["201","301","302"]},"PIF298474":{"lat":22.084077,"lon":120.73576,"name":"二重溪","routes":["201","301","302"]},"PIF298475":{"lat":21.942563,"lon":120.80305,"name":"墾丁活動中心","routes":["102"]},"PIF298476":{"lat":22.092912,"lon":120.747643,"name":"四重溪","routes":["201","301","302","518"]},"PIF298478":{"lat":22.094933,"lon":120.749742,"name":"文明路口","routes":["201","301","302","518"]},"PIF298479":{"lat":22.101355,"lon":120.763122,"name":"石門埔","routes":["301","302"]},"PIF298480":{"lat":22.125333,"lon":120.773772,"name":"石門","routes":["301","302"]},"PIF298481":{"lat":22.007482,"lon":120.743311,"name":"恆春監工站","routes":["201","301","302"]},"PIF298482":{"lat":22.009088,"lon":120.74366,"name":"僑勇國小","routes":["201","301","302"]},"PIF298483":{"lat":22.01098,"lon":120.74414,"name":"恆春電信局","routes":["201","301","302"]},"PIF298484":{"lat":22.685177,"lon":120.471403,"name":"機場北路","routes":["506"]},"PIF298485":{"lat":22.67859,"lon":120.473065,"name":"機場路口","routes":["506"]},"PIF298486":{"lat":22.678837,"lon":120.47699,"name":"大同高中","routes":["506"]},"PIF298487":{"lat":22.014049,"lon":120.744303,"name":"恆春洋蔥檢驗廠","routes":["201","301","302"]},"PIF298488":{"lat":22.679165,"lon":120.481922,"name":"崇仁新村","routes":["506"]},"PIF298489":{"lat":22.01881,"lon":120.74406,"name":"網紗","routes":["201","301","302"]},"PIF298490":{"lat":22.018813,"lon":120.743897,"name":"網紗","routes":["201","301","302"]},"PIF298492":{"lat":22.027195,"lon":120.741828,"name":"仁壽里","routes":["201","301","302"]},"PIF298493":{"lat":22.033636,"lon":120.739164,"name":"虎頭山","routes":["201","301","302"]},"PIF298494":{"lat":22.03783,"lon":120.737239,"name":"五里亭","routes":["201","301","302"]},"PIF298495":{"lat":22.041169,"lon":120.734005,"name":"五里亭機場","routes":["201","301","302"]},"PIF298496":{"lat":22.0531165,"lon":120.7220054,"name":"海生館轉乘站","routes":["201","301","302"]},"PIF298497":{"lat":22.06086,"lon":120.71652,"name":"新街(恆)","routes":["201","301","302"]},"PIF298498":{"lat":22.07237,"lon":120.71391,"name":"車城農會","routes":["201","301","302"]},"PIF298499":{"lat":22.67061,"lon":120.487705,"name":"逢甲路","routes":["505"]},"PIF298500":{"lat":22.072426,"lon":120.716242,"name":"車城國中","routes":["201","301","302"]},"PIF298501":{"lat":22.0720621,"lon":120.7280474,"name":"統埔","routes":["201","301","302"]},"PIF298502":{"lat":22.084256,"lon":120.735981,"name":"二重溪","routes":["201","301","302"]},"PIF298503":{"lat":22.09288,"lon":120.74752,"name":"四重溪","routes":["201","301","302","518"]},"PIF298504":{"lat":22.673688,"lon":120.492615,"name":"屏東公園","routes":["505"]},"PIF298505":{"lat":22.094933,"lon":120.749742,"name":"文明路口","routes":["201","301","302","518"]},"PIF298506":{"lat":22.101355,"lon":120.763122,"name":"石門埔","routes":["301","302"]},"PIF298507":{"lat":22.125333,"lon":120.773772,"name":"石門","routes":["301","302"]},"PIF298508":{"lat":22.055951,"lon":120.72001,"name":"保力","routes":["201","301","302"]},"PIF298509":{"lat":22.673075,"lon":120.4947966,"name":"林業服務小棧(屏東醫院)","routes":["505"]},"PIF298510":{"lat":22.00518,"lon":120.81628,"name":"永港國小(側門)","routes":["103"]},"PIF298511":{"lat":22.000704,"lon":120.819553,"name":"橋頭路","routes":["103","303"]},"PIF298512":{"lat":21.99076,"lon":120.8241,"name":"港口","routes":["103","303"]},"PIF298513":{"lat":21.99101,"lon":120.82708,"name":"港口福安宮","routes":["103","303"]},"PIF298514":{"lat":21.99193,"lon":120.83303,"name":"公館(恆)","routes":["103","303"]},"PIF298515":{"lat":22.064582,"lon":120.714962,"name":"北保力","routes":["201","301","302"]},"PIF298516":{"lat":21.99076,"lon":120.83931,"name":"茶山","routes":["103","303"]},"PIF298517":{"lat":22.672095,"lon":120.498382,"name":"民享路口","routes":["505"]},"PIF298518":{"lat":22.674397,"lon":120.500102,"name":"陸興高中","routes":["505","513","516"]},"PIF298519":{"lat":22.681622,"lon":120.502152,"name":"基督教醫院","routes":["505"]},"PIF298520":{"lat":22.68643,"lon":120.50425,"name":"瑞光夜市","routes":["505"]},"PIF298521":{"lat":22.686455,"lon":120.501244,"name":"和平國小","routes":["505"]},"PIF298522":{"lat":21.98966,"lon":120.8419,"name":"海墘","routes":["103","303"]},"PIF298523":{"lat":22.684717,"lon":120.498269,"name":"華正路","routes":["505"]},"PIF298524":{"lat":22.127875,"lon":120.782737,"name":"牡丹橋","routes":["302"]},"PIF298525":{"lat":21.99388,"lon":120.86246,"name":"佳樂水","routes":["103"]},"PIF298526":{"lat":22.127875,"lon":120.782737,"name":"牡丹橋","routes":["302"]},"PIF298527":{"lat":22.682804,"lon":120.499217,"name":"萬福宮","routes":["505","509","513"]},"PIF298529":{"lat":22.133495,"lon":120.798925,"name":"中間路","routes":["302"]},"PIF298530":{"lat":22.68061,"lon":120.5016,"name":"廣東橋","routes":["505","513"]},"PIF298531":{"lat":22.133495,"lon":120.798925,"name":"中間路","routes":["302"]},"PIF298532":{"lat":22.6777,"lon":120.5011,"name":"千禧公園","routes":["505","513"]},"PIF298533":{"lat":22.674385,"lon":120.499975,"name":"陸興高中","routes":["505","513","516"]},"PIF298534":{"lat":21.97656,"lon":120.84398,"name":"興海路","routes":["103","303"]},"PIF298535":{"lat":22.148495,"lon":120.816265,"name":"鐵線橋","routes":["302"]},"PIF298536":{"lat":22.148495,"lon":120.816265,"name":"鐵線橋","routes":["302"]},"PIF298537":{"lat":22.67217,"lon":120.49833,"name":"民享路口","routes":["505"]},"PIF298538":{"lat":22.173523,"lon":120.83449,"name":"牡丹村","routes":["302"]},"PIF298539":{"lat":22.173523,"lon":120.83449,"name":"牡丹村","routes":["302"]},"PIF298540":{"lat":22.672947,"lon":120.495342,"name":"林業服務小棧(屏東醫院)","routes":["505"]},"PIF298541":{"lat":22.17565,"lon":120.837975,"name":"牡丹國小","routes":["302"]},"PIF298542":{"lat":22.673753,"lon":120.49261,"name":"屏東公園","routes":["505","509","516"]},"PIF298543":{"lat":22.17565,"lon":120.837975,"name":"牡丹國小","routes":["302"]},"PIF298545":{"lat":22.179253,"lon":120.84154,"name":"上牡丹","routes":["302"]},"PIF298546":{"lat":22.179253,"lon":120.84154,"name":"上牡丹","routes":["302"]},"PIF298547":{"lat":22.182935,"lon":120.847473,"name":"旭海路口","routes":["302"]},"PIF298548":{"lat":22.182935,"lon":120.847473,"name":"旭海路口","routes":["302"]},"PIF298549":{"lat":22.205693,"lon":120.853387,"name":"東源","routes":["302"]},"PIF298550":{"lat":22.205693,"lon":120.853387,"name":"東源","routes":["302"]},"PIF298551":{"lat":22.192445,"lon":120.88103,"name":"旭海溫泉","routes":["302"]},"PIF298554":{"lat":21.975565,"lon":120.733652,"name":"田尾","routes":["305","306","307"]},"PIF298555":{"lat":21.970777,"lon":120.734577,"name":"龍泉國小(恆)","routes":["305","306"]},"PIF298556":{"lat":21.964573,"lon":120.740542,"name":"麻場","routes":["305","306"]},"PIF298557":{"lat":21.954392,"lon":120.740428,"name":"砂尾路","routes":["305","306"]},"PIF298558":{"lat":21.949034,"lon":120.740634,"name":"大光","routes":["102","305","306"]},"PIF298560":{"lat":21.946617,"lon":120.739705,"name":"大光路","routes":["305","306"]},"PIF298562":{"lat":21.945377,"lon":120.739018,"name":"大窟尾","routes":["305","306"]},"PIF298563":{"lat":21.936283,"lon":120.731845,"name":"水泉(恆)","routes":["305","306"]},"PIF298564":{"lat":21.935273,"lon":120.731767,"name":"水泉路(恆)","routes":["305"]},"PIF298565":{"lat":21.939948,"lon":120.730252,"name":"華山寺","routes":["306"]},"PIF298566":{"lat":21.949105,"lon":120.721332,"name":"南樹林","routes":["306"]},"PIF298567":{"lat":21.954773,"lon":120.722172,"name":"北樹林","routes":["306"]},"PIF298568":{"lat":21.964928,"lon":120.720017,"name":"高山巖","routes":["306"]},"PIF298569":{"lat":21.981935,"lon":120.716352,"name":"山海國小","routes":["307"]},"PIF298570":{"lat":21.986375,"lon":120.714178,"name":"蟳廣嘴","routes":["307"]},"PIF298571":{"lat":21.997497,"lon":120.705963,"name":"下萬里桐","routes":["101","307"]},"PIF298572":{"lat":21.99964,"lon":120.702497,"name":"萬里桐","routes":["101","307"]},"PIF298573":{"lat":22.13498,"lon":120.887372,"name":"港仔村","routes":["304"]},"PIF298574":{"lat":22.133258,"lon":120.883645,"name":"港仔內","routes":["304"]},"PIF298575":{"lat":22.115397,"lon":120.867166,"name":"片埔路口","routes":["304"]},"PIF298576":{"lat":22.102772,"lon":120.840243,"name":"分水嶺","routes":["304"]},"PIF298577":{"lat":22.101455,"lon":120.835342,"name":"下分水嶺","routes":["304"]},"PIF298578":{"lat":22.087855,"lon":120.829513,"name":"八瑤路(檳榔)","routes":["304"]},"PIF298579":{"lat":22.075102,"lon":120.828267,"name":"長樂國小","routes":["304"]},"PIF298580":{"lat":22.071413,"lon":120.828658,"name":"中興部落","routes":["304"]},"PIF298581":{"lat":22.055628,"lon":120.825377,"name":"萬得路","routes":["304"]},"PIF298582":{"lat":22.038542,"lon":120.831624,"name":"響林村","routes":["304"]},"PIF298584":{"lat":22.007132,"lon":120.827087,"name":"下滿州","routes":["304"]},"PIF298585":{"lat":22.006138,"lon":120.817045,"name":"永港國小(正門)","routes":["304"]},"PIF298586":{"lat":22.005207,"lon":120.809866,"name":"永靖","routes":["303","304"]},"PIF298587":{"lat":22.0073,"lon":120.80643,"name":"春興路口","routes":["304"]},"PIF298588":{"lat":22.00925,"lon":120.79528,"name":"和興路","routes":["303","304"]},"PIF298589":{"lat":22.00826,"lon":120.79025,"name":"大崎","routes":["303","304"]},"PIF298591":{"lat":22.007289,"lon":120.756806,"name":"恆春出火地質公園","routes":["303","304"]},"PIF298592":{"lat":22.004263,"lon":120.750234,"name":"東門","routes":["303","304"]},"PIF298595":{"lat":21.955637,"lon":120.713167,"name":"合界","routes":["305"]},"PIF298596":{"lat":21.9447,"lon":120.71251,"name":"頂白砂","routes":["305"]},"PIF298597":{"lat":21.936213,"lon":120.717822,"name":"白砂","routes":["305"]},"PIF298598":{"lat":21.932582,"lon":120.721455,"name":"銀山","routes":["305"]},"PIF298599":{"lat":21.928425,"lon":120.731993,"name":"下水泉","routes":["305"]},"PIF298600":{"lat":21.935273,"lon":120.731767,"name":"水泉路(恆)","routes":["305"]},"PIF298601":{"lat":21.936283,"lon":120.731845,"name":"水泉(恆)","routes":["305","306"]},"PIF298602":{"lat":21.945377,"lon":120.739018,"name":"大窟尾","routes":["305","306"]},"PIF298603":{"lat":21.946617,"lon":120.739705,"name":"大光路","routes":["305","306"]},"PIF298606":{"lat":21.954392,"lon":120.740428,"name":"砂尾路","routes":["305","306"]},"PIF298607":{"lat":21.964573,"lon":120.740542,"name":"麻場","routes":["305","306"]},"PIF298608":{"lat":21.970777,"lon":120.734577,"name":"龍泉國小(恆)","routes":["305","306"]},"PIF298609":{"lat":21.975565,"lon":120.733652,"name":"田尾","routes":["305","306","307"]},"PIF298610":{"lat":21.980283,"lon":120.729693,"name":"龍水派出所","routes":["305","306","307"]},"PIF298611":{"lat":21.98539,"lon":120.73073,"name":"龍水","routes":["305","306","307"]},"PIF298613":{"lat":21.994388,"lon":120.746128,"name":"五公寺","routes":["305","306","307"]},"PIF298614":{"lat":21.99778,"lon":120.744827,"name":"恆春旅遊醫院(恆南路)","routes":["305","306","307"]},"PIF298616":{"lat":21.964928,"lon":120.720017,"name":"高山巖","routes":["306"]},"PIF298617":{"lat":21.954773,"lon":120.722172,"name":"北樹林","routes":["306"]},"PIF298618":{"lat":21.949105,"lon":120.721332,"name":"南樹林","routes":["306"]},"PIF298619":{"lat":21.939948,"lon":120.730252,"name":"華山寺","routes":["306"]},"PIF298620":{"lat":21.99964,"lon":120.702497,"name":"萬里桐","routes":["101","307"]},"PIF298621":{"lat":21.997497,"lon":120.705963,"name":"下萬里桐","routes":["101","307"]},"PIF298622":{"lat":21.986375,"lon":120.714178,"name":"蟳廣嘴","routes":["307"]},"PIF298623":{"lat":21.981935,"lon":120.716352,"name":"山海國小","routes":["307"]},"PIF298624":{"lat":21.974833,"lon":120.719575,"name":"山海路口","routes":["307"]},"PIF298625":{"lat":21.973238,"lon":120.730123,"name":"檳榔坑","routes":["307"]},"PIF298634":{"lat":22.192445,"lon":120.88103,"name":"旭海溫泉","routes":["302"]},"PIF298635":{"lat":22.194747,"lon":120.88732,"name":"旭海派出所","routes":["302"]},"PIF298636":{"lat":22.194747,"lon":120.88732,"name":"旭海派出所","routes":["302"]},"PIF298637":{"lat":22.071734,"lon":120.71403,"name":"車城","routes":["518"]},"PIF298638":{"lat":22.19693,"lon":120.88975,"name":"旭海東海橋","routes":["幸福牡丹7路"]},"PIF298640":{"lat":22.19694,"lon":120.88972,"name":"旭海東海橋","routes":["幸福牡丹7路"]},"PIF298645":{"lat":22.098991,"lon":120.747952,"name":"南大梅路","routes":["201"]},"PIF298646":{"lat":22.003068,"lon":120.774817,"name":"福音中心","routes":["303"]},"PIF298651":{"lat":21.9999,"lon":120.8199,"name":"橋頭路","routes":["303"]},"PIF298652":{"lat":21.9999,"lon":120.8199,"name":"橋頭路","routes":["303"]},"PIF298655":{"lat":21.99101,"lon":120.82708,"name":"港口福安宮","routes":["303"]},"PIF298656":{"lat":21.99101,"lon":120.82708,"name":"港口福安宮","routes":["303"]},"PIF298657":{"lat":21.99193,"lon":120.83303,"name":"公館(恆)","routes":["303"]},"PIF298658":{"lat":21.99076,"lon":120.83931,"name":"茶山","routes":["303"]},"PIF298659":{"lat":21.99076,"lon":120.83931,"name":"茶山","routes":["303"]},"PIF298661":{"lat":21.990134,"lon":120.841075,"name":"海墘","routes":["303"]},"PIF298662":{"lat":21.990134,"lon":120.841075,"name":"海墘","routes":["303"]},"PIF298663":{"lat":21.975985,"lon":120.843673,"name":"興海路","routes":["303"]},"PIF298664":{"lat":21.990134,"lon":120.841075,"name":"海墘","routes":["303"]},"PIF298670":{"lat":21.99076,"lon":120.8241,"name":"港口","routes":["303"]},"PIF298671":{"lat":21.990943,"lon":120.823963,"name":"港口","routes":["303"]},"PIF298673":{"lat":22.005315,"lon":120.816312,"name":"永港國小(側門)","routes":["303"]},"PIF298675":{"lat":22.006138,"lon":120.817045,"name":"永港國小(正門)","routes":["303"]},"PIF298702":{"lat":22.640316,"lon":120.536686,"name":"麟洛運動公園","routes":["509"]},"PIF298704":{"lat":22.640778,"lon":120.596354,"name":"屏科大大門","routes":["510"]},"PIF298707":{"lat":22.707387,"lon":120.652192,"name":"原住民文化園區","routes":["603"]},"PIF298708":{"lat":21.9669,"lon":120.75735,"name":"馬鞍山","routes":["101","102"]},"PIF298709":{"lat":21.969219,"lon":120.756496,"name":"恒南南光路口","routes":["101"]},"PIF298710":{"lat":22.640697,"lon":120.536892,"name":"麟洛運動公園","routes":["509"]},"PIF298711":{"lat":21.972668,"lon":120.754792,"name":"永進社區","routes":["101"]},"PIF298712":{"lat":21.9760901,"lon":120.7533904,"name":"柴櫛山","routes":["101"]},"PIF298713":{"lat":21.982552,"lon":120.750792,"name":"鼻子頭","routes":["101"]},"PIF298714":{"lat":21.99016,"lon":120.74772,"name":"南興社區","routes":["101"]},"PIF298715":{"lat":21.992941,"lon":120.746617,"name":"恆春工商","routes":["101"]},"PIF298717":{"lat":21.9941,"lon":120.74616,"name":"五公寺","routes":["101"]},"PIF298718":{"lat":21.99766,"lon":120.74476,"name":"恆春旅遊醫院(恆南路)","routes":["101"]},"PIF298720":{"lat":22.002817,"lon":120.744873,"name":"恆春轉運站","routes":["101"]},"PIF298721":{"lat":22.007482,"lon":120.743311,"name":"恆春監工站","routes":["101"]},"PIF298722":{"lat":22.009088,"lon":120.74366,"name":"僑勇國小","routes":["101"]},"PIF298723":{"lat":22.01098,"lon":120.74414,"name":"恆春電信局","routes":["101"]},"PIF298724":{"lat":22.014049,"lon":120.744303,"name":"恆春洋蔥檢驗廠","routes":["101"]},"PIF298725":{"lat":22.018813,"lon":120.743897,"name":"網紗","routes":["101"]},"PIF298726":{"lat":22.02713,"lon":120.74205,"name":"仁壽里","routes":["101"]},"PIF298727":{"lat":22.027195,"lon":120.741828,"name":"仁壽里","routes":["101"]},"PIF298728":{"lat":22.03371,"lon":120.73936,"name":"虎頭山","routes":["101"]},"PIF298729":{"lat":22.033636,"lon":120.739164,"name":"虎頭山","routes":["101"]},"PIF298733":{"lat":22.43876,"lon":120.46849,"name":"南平共心堂","routes":["小黃公車713"]},"PIF298737":{"lat":22.03803,"lon":120.73725,"name":"五里亭","routes":["101"]},"PIF298738":{"lat":22.03783,"lon":120.737239,"name":"五里亭","routes":["101"]},"PIF298739":{"lat":22.04136,"lon":120.73406,"name":"五里亭機場","routes":["101"]},"PIF298740":{"lat":22.041169,"lon":120.734005,"name":"五里亭機場","routes":["101"]},"PIF298743":{"lat":22.053235,"lon":120.721385,"name":"埔墘路口","routes":["101"]},"PIF298744":{"lat":22.053235,"lon":120.721385,"name":"埔墘路口","routes":["101"]},"PIF298745":{"lat":22.05223,"lon":120.71423,"name":"埔墘路","routes":["101","308"]},"PIF298746":{"lat":22.05223,"lon":120.71423,"name":"埔墘路","routes":["101","308"]},"PIF298747":{"lat":22.04816,"lon":120.70365,"name":"龜山","routes":["101"]},"PIF298748":{"lat":22.04816,"lon":120.70365,"name":"龜山","routes":["101"]},"PIF298749":{"lat":22.04588,"lon":120.69853,"name":"海生館","routes":["101"]},"PIF298750":{"lat":22.04588,"lon":120.69853,"name":"海生館","routes":["101"]},"PIF298751":{"lat":21.941212,"lon":120.806061,"name":"小灣","routes":["101","102"]},"PIF298752":{"lat":21.942563,"lon":120.80305,"name":"墾丁活動中心","routes":["101"]},"PIF298754":{"lat":21.944702,"lon":120.800024,"name":"墾丁派出所","routes":["101","102"]},"PIF298755":{"lat":21.945876,"lon":120.794004,"name":"墾丁牌樓","routes":["101","102"]},"PIF298756":{"lat":21.94621,"lon":120.7902,"name":"北墾丁","routes":["101"]},"PIF298757":{"lat":21.94611,"lon":120.7845,"name":"石牛溪","routes":["101"]},"PIF298758":{"lat":21.94896,"lon":120.77907,"name":"墾管處","routes":["101"]},"PIF298760":{"lat":21.95631,"lon":120.7689,"name":"跳石仔","routes":["101"]},"PIF298761":{"lat":21.960633,"lon":120.763834,"name":"南灣","routes":["101","102"]},"PIF298763":{"lat":22.042948,"lon":120.70107,"name":"上後灣","routes":["101"]},"PIF298764":{"lat":22.038901,"lon":120.696138,"name":"後灣","routes":["101"]},"PIF298765":{"lat":22.033552,"lon":120.689168,"name":"落林","routes":["101"]},"PIF298766":{"lat":22.01966,"lon":120.689537,"name":"下水窟","routes":["101"]},"PIF298767":{"lat":21.905649,"lon":120.851153,"name":"鵝鑾鼻","routes":["101"]},"PIF298768":{"lat":21.90562,"lon":120.8509,"name":"鵝鑾鼻","routes":["101"]},"PIF298769":{"lat":21.912021,"lon":120.848063,"name":"砂島","routes":["101"]},"PIF298770":{"lat":21.91223,"lon":120.8479,"name":"砂島","routes":["101"]},"PIF298771":{"lat":21.925877,"lon":120.831777,"name":"香蕉灣","routes":["101"]},"PIF298772":{"lat":21.92596,"lon":120.8316,"name":"香蕉灣","routes":["101"]},"PIF298773":{"lat":21.9326519,"lon":120.8243449,"name":"船帆石","routes":["101"]},"PIF298774":{"lat":21.93289,"lon":120.824,"name":"船帆石","routes":["101"]},"PIF298775":{"lat":21.93605,"lon":120.8183,"name":"上船帆石","routes":["101"]},"PIF298776":{"lat":21.93605,"lon":120.8183,"name":"上船帆石","routes":["101"]},"PIF298777":{"lat":21.93988,"lon":120.80748,"name":"南墾丁","routes":["101"]},"PIF298778":{"lat":21.93988,"lon":120.80748,"name":"南墾丁","routes":["101"]},"PIF299182":{"lat":22.007132,"lon":120.827087,"name":"下滿州","routes":["303"]},"PIF299390":{"lat":21.955879,"lon":120.769178,"name":"跳石仔","routes":["102"]},"PIF299391":{"lat":22.64740262,"lon":120.61559864,"name":"綜合大樓","routes":["509","510"]},"PIF299392":{"lat":22.64740262,"lon":120.61559864,"name":"綜合大樓","routes":["510"]},"PIF299393":{"lat":22.64812545,"lon":120.61194985,"name":"熱農大樓","routes":["509","510"]},"PIF299394":{"lat":22.648179,"lon":120.611424,"name":"熱農大樓","routes":["509"]},"PIF299395":{"lat":22.648451,"lon":120.607443,"name":"生機系","routes":["509","510"]},"PIF299396":{"lat":22.64118137,"lon":120.60238033,"name":"獸醫系館","routes":["509","510"]},"PIF299397":{"lat":22.64118137,"lon":120.60238033,"name":"獸醫系館","routes":["509"]},"PIF299398":{"lat":22.642142,"lon":120.595721,"name":"屏科大","routes":["510"]},"PIF299400":{"lat":22.643182,"lon":120.595944,"name":"屏科國際學院","routes":["510"]},"PIF299402":{"lat":22.646524,"lon":120.596035,"name":"大地學府","routes":["510"]},"PIF299404":{"lat":22.641216,"lon":120.593169,"name":"村裡的小野菊","routes":["510"]},"PIF299406":{"lat":22.636818,"lon":120.591061,"name":"林家學舍","routes":["509","510"]},"PIF299408":{"lat":22.631046,"lon":120.594219,"name":"下老埤","routes":["510"]},"PIF299410":{"lat":22.632752,"lon":120.597681,"name":"老埤","routes":["510"]},"PIF299412":{"lat":22.636003,"lon":120.596689,"name":"屏技早餐店","routes":["510"]},"PIF299415":{"lat":22.640933,"lon":120.596404,"name":"屏科大大門","routes":["510"]},"PIF299416":{"lat":22.642644,"lon":120.610515,"name":"行政大樓","routes":["509"]},"PIF299417":{"lat":22.642737,"lon":120.610543,"name":"行政大樓","routes":["509"]},"PIF299418":{"lat":22.669445,"lon":120.485111,"name":"屏東轉運站","routes":["509"]},"PIF299419":{"lat":22.674481,"lon":120.487827,"name":"林森信義路口","routes":["509"]},"PIF299420":{"lat":22.674662,"lon":120.487766,"name":"林森信義路口","routes":["509"]},"PIF299421":{"lat":22.674726,"lon":120.488639,"name":"警察大樓","routes":["509"]},"PIF299422":{"lat":22.6744,"lon":120.49014,"name":"屏東演武場","routes":["505","509"]},"PIF299423":{"lat":21.91612,"lon":120.8407,"name":"番仔寮","routes":["101"]},"PIF299424":{"lat":21.93574,"lon":120.82219,"name":"中船帆石","routes":["101"]},"PIF299425":{"lat":22.68194,"lon":120.49689,"name":"仁愛公勤路口","routes":["509"]},"PIF299426":{"lat":22.681912,"lon":120.496754,"name":"仁愛公勤路口","routes":["509"]},"PIF299427":{"lat":22.681933,"lon":120.502849,"name":"基督教醫院","routes":["509"]},"PIF299428":{"lat":22.679073,"lon":120.507205,"name":"瑞光興豐路口","routes":["509"]},"PIF299429":{"lat":22.679156,"lon":120.507205,"name":"瑞光興豐路口","routes":["509"]},"PIF299430":{"lat":22.676769,"lon":120.50921,"name":"瑞光豐連路口","routes":["509"]},"PIF299431":{"lat":22.67671,"lon":120.509276,"name":"瑞光豐連路口","routes":["509"]},"PIF299432":{"lat":22.659054,"lon":120.515004,"name":"國仁醫院","routes":["509"]},"PIF299433":{"lat":22.658968,"lon":120.515143,"name":"國仁醫院","routes":["509"]},"PIF299434":{"lat":22.65314,"lon":120.52327,"name":"上麟洛","routes":["509"]},"PIF299435":{"lat":22.654056,"lon":120.521743,"name":"上麟洛","routes":["509"]},"PIF299436":{"lat":22.64999,"lon":120.52739,"name":"麟洛鄉公所","routes":["509"]},"PIF299437":{"lat":22.650367,"lon":120.527284,"name":"麟洛鄉公所","routes":["509"]},"PIF299438":{"lat":22.643022,"lon":120.579515,"name":"科大大同路口","routes":["509"]},"PIF299439":{"lat":22.642908,"lon":120.579729,"name":"科大大同路口","routes":["509"]},"PIF299440":{"lat":22.640778,"lon":120.596354,"name":"屏科大大門","routes":["509","512"]},"PIF299805":{"lat":21.943641,"lon":120.74321,"name":"後壁湖","routes":["102"]},"PIF300020":{"lat":22.64673162,"lon":120.61137416,"name":"時尚設計系","routes":["510"]},"PIF300021":{"lat":22.645014,"lon":120.611406,"name":"屏科大圖書館","routes":["510"]},"PIF300022":{"lat":22.643126,"lon":120.611478,"name":"植醫系","routes":["510"]},"PIF300023":{"lat":22.648451,"lon":120.607443,"name":"生機系","routes":["510"]},"PIF300024":{"lat":22.64812545,"lon":120.61194985,"name":"熱農大樓","routes":["510"]},"PIF300025":{"lat":22.643126,"lon":120.611478,"name":"植醫系","routes":["510"]},"PIF300026":{"lat":22.645014,"lon":120.611406,"name":"屏科大圖書館","routes":["510"]},"PIF300027":{"lat":22.64673162,"lon":120.6113742,"name":"時尚設計系","routes":["510"]},"PIF300103":{"lat":22.130147,"lon":120.792115,"name":"中興社區","routes":["302"]},"PIF300104":{"lat":22.130177,"lon":120.792646,"name":"中興社區","routes":["302"]},"PIF300105":{"lat":22.0073,"lon":120.80643,"name":"春興路口","routes":["303","304"]},"PIF300106":{"lat":22.00518,"lon":120.81628,"name":"永港國小(側門)","routes":["303"]},"PIF300107":{"lat":22.659745,"lon":120.477653,"name":"永大路","routes":["505"]},"PIF300109":{"lat":22.023885,"lon":120.839553,"name":"滿州國中","routes":["303"]},"PIF300110":{"lat":22.006138,"lon":120.817045,"name":"永港國小(正門)","routes":["303"]},"PIF300119":{"lat":22.003068,"lon":120.774817,"name":"福音中心","routes":["304"]},"PIF300123":{"lat":21.950373,"lon":120.74064,"name":"大光國小","routes":["305"]},"PIF300124":{"lat":22.110722,"lon":120.873263,"name":"九棚村","routes":["304"]},"PIF300126":{"lat":22.115397,"lon":120.867166,"name":"片埔路口","routes":["304"]},"PIF300132":{"lat":22.650284,"lon":120.571965,"name":"大和社區","routes":["509"]},"PIF300133":{"lat":22.649855,"lon":120.57261,"name":"大和社區","routes":["509"]},"PIF300134":{"lat":22.636768,"lon":120.590801,"name":"林家學舍","routes":["509"]},"PIF300135":{"lat":22.640933,"lon":120.596404,"name":"屏科大大門","routes":["509","512"]},"PIF300355":{"lat":22.640933,"lon":120.596404,"name":"屏科大大門","routes":["510"]},"PIF300358":{"lat":22.63272,"lon":120.59768,"name":"老埤","routes":["510"]},"PIF300359":{"lat":22.63139,"lon":120.59444,"name":"下老埤","routes":["510"]},"PIF300360":{"lat":22.62642,"lon":120.58875,"name":"檳榔林","routes":["510"]},"PIF300361":{"lat":22.6265,"lon":120.58897,"name":"檳榔林","routes":["510"]},"PIF300362":{"lat":22.621474,"lon":120.583245,"name":"義亭","routes":["510"]},"PIF300363":{"lat":22.61932,"lon":120.5803,"name":"興南","routes":["510"]},"PIF300364":{"lat":22.61924,"lon":120.58022,"name":"興南","routes":["510"]},"PIF300365":{"lat":22.61625,"lon":120.57241,"name":"下內埔","routes":["510"]},"PIF300366":{"lat":22.616257,"lon":120.572722,"name":"下內埔","routes":["510"]},"PIF300367":{"lat":22.614011,"lon":120.566416,"name":"內埔","routes":["510"]},"PIF300368":{"lat":22.615157,"lon":120.566687,"name":"內埔","routes":["510"]},"PIF300369":{"lat":22.61209,"lon":120.56645,"name":"內埔圓環","routes":["510"]},"PIF300370":{"lat":22.61197,"lon":120.56661,"name":"內埔圓環","routes":["510"]},"PIF300371":{"lat":22.6065273,"lon":120.5635675,"name":"和興","routes":["510"]},"PIF300372":{"lat":22.60609,"lon":120.56325,"name":"和興","routes":["510"]},"PIF300373":{"lat":22.640778,"lon":120.596354,"name":"屏科大大門","routes":["510"]},"PIF301565":{"lat":22.68863,"lon":120.30758,"name":"台鐵新左營站","routes":["511"]},"PIF301567":{"lat":22.67755,"lon":120.32216,"name":"榮總","routes":["511"]},"PIF301568":{"lat":22.76471,"lon":120.36406,"name":"義大醫院","routes":["511"]},"PIF301569":{"lat":22.76497,"lon":120.36401,"name":"義大醫院","routes":["511"]},"PIF301570":{"lat":22.79700829,"lon":120.4580268,"name":"德勝巷","routes":["511"]},"PIF301571":{"lat":22.79695,"lon":120.45821,"name":"德勝巷","routes":["511"]},"PIF301572":{"lat":22.77490787,"lon":120.4503436,"name":"嶺口","routes":["511"]},"PIF301573":{"lat":22.77376,"lon":120.44926,"name":"嶺口","routes":["511"]},"PIF301574":{"lat":22.77473595,"lon":120.4942351,"name":"里港","routes":["511"]},"PIF301575":{"lat":22.74853,"lon":120.54675,"name":"彭厝","routes":["511"]},"PIF301576":{"lat":22.74867,"lon":120.54656,"name":"彭厝","routes":["511"]},"PIF301577":{"lat":22.74114687,"lon":120.5576245,"name":"新圍","routes":["511"]},"PIF301578":{"lat":22.74137878,"lon":120.5574407,"name":"新圍","routes":["511"]},"PIF301579":{"lat":22.73817,"lon":120.58255,"name":"高朗朗","routes":["511"]},"PIF301580":{"lat":22.73829,"lon":120.5825,"name":"高朗朗","routes":["511"]},"PIF301581":{"lat":22.7255,"lon":120.61009,"name":"振興國小","routes":["511"]},"PIF301582":{"lat":22.72565,"lon":120.60988,"name":"振興國小","routes":["511"]},"PIF301583":{"lat":22.70703,"lon":120.63856,"name":"內埔農工","routes":["511","603","606"]},"PIF301584":{"lat":22.70705,"lon":120.6387,"name":"內埔農工","routes":["511","603","606"]},"PIF301585":{"lat":22.6863375,"lon":120.6378821,"name":"涼山遊憩區","routes":["511","603","605"]},"PIF301586":{"lat":22.68626975,"lon":120.6378922,"name":"涼山遊憩區","routes":["511","603","605"]},"PIF301588":{"lat":22.54952,"lon":120.53642,"name":"潮州火車站","routes":["幸福泰武5路"]},"PIF301589":{"lat":22.53815968,"lon":120.5902293,"name":"林後四林","routes":["605"]},"PIF301592":{"lat":22.59506,"lon":120.61065,"name":"萬金教堂","routes":["605"]},"PIF301593":{"lat":22.6041,"lon":120.61106,"name":"吾拉魯茲","routes":["605"]},"PIF301594":{"lat":22.63023,"lon":120.62633,"name":"排灣","routes":["605"]},"PIF301595":{"lat":22.64487268,"lon":120.6276992,"name":"休閒農場","routes":["605"]},"PIF301596":{"lat":22.6548,"lon":120.63028,"name":"佳義國小","routes":["605"]},"PIF301597":{"lat":22.65429,"lon":120.63,"name":"佳義國小","routes":["605"]},"PIF301598":{"lat":22.64531158,"lon":120.6276088,"name":"休閒農場","routes":["605"]},"PIF301599":{"lat":22.63033,"lon":120.62618,"name":"排灣","routes":["605"]},"PIF301600":{"lat":22.6041,"lon":120.61106,"name":"吾拉魯茲","routes":["605"]},"PIF301601":{"lat":22.5950451,"lon":120.6106894,"name":"萬金教堂","routes":["605"]},"PIF301604":{"lat":22.53815968,"lon":120.5902293,"name":"林後四林","routes":["605"]},"PIF301605":{"lat":22.625752,"lon":120.363321,"name":"鳳山轉運站(捷運大東站)","routes":["512"]},"PIF301606":{"lat":22.624509,"lon":120.371743,"name":"捷運鳳山國中站(郵局)","routes":["512"]},"PIF301607":{"lat":22.62560177,"lon":120.3744437,"name":"中山東路","routes":["512"]},"PIF301608":{"lat":22.61763,"lon":120.39151,"name":"自由路口","routes":["512"]},"PIF301609":{"lat":22.61336158,"lon":120.407872,"name":"朱峰宮","routes":["512"]},"PIF301610":{"lat":22.59188,"lon":120.42223,"name":"上寮路口","routes":["512"]},"PIF301611":{"lat":22.58727,"lon":120.48981,"name":"萬丹","routes":["512"]},"PIF301613":{"lat":22.60349,"lon":120.5618,"name":"美和科技大學","routes":["510","512"]},"PIF301614":{"lat":22.61207,"lon":120.56674,"name":"內埔鄉公所","routes":["512"]},"PIF301615":{"lat":22.61209,"lon":120.56645,"name":"內埔鄉公所","routes":["512"]},"PIF301616":{"lat":22.60349,"lon":120.5618,"name":"美和科技大學","routes":["512"]},"PIF301618":{"lat":22.587313,"lon":120.489623,"name":"萬丹","routes":["512"]},"PIF301619":{"lat":22.59199,"lon":120.42204,"name":"上寮路口","routes":["512"]},"PIF301620":{"lat":22.61353,"lon":120.40798,"name":"朱峰宮","routes":["512"]},"PIF301621":{"lat":22.61731,"lon":120.39202,"name":"自由路口","routes":["512"]},"PIF301622":{"lat":22.62626637,"lon":120.3752721,"name":"中山東路","routes":["512"]},"PIF301624":{"lat":22.624492,"lon":120.371195,"name":"捷運鳳山國中站(郵局)","routes":["512"]},"PIF301625":{"lat":22.625752,"lon":120.363321,"name":"鳳山轉運站(捷運大東站)","routes":["512"]},"PIF301627":{"lat":22.87961,"lon":120.64483,"name":"大津(預約站)","routes":["小黃公車751"]},"PIF301628":{"lat":22.87946,"lon":120.64488,"name":"大津(預約站)","routes":["小黃公車751"]},"PIF302264":{"lat":22.67646,"lon":120.47803,"name":"大同高中2","routes":["513"]},"PIF302265":{"lat":22.681565,"lon":120.478582,"name":"自由崇明路口","routes":["513"]},"PIF302266":{"lat":22.686774,"lon":120.48077,"name":"環保公園","routes":["513"]},"PIF302267":{"lat":22.687611,"lon":120.484596,"name":"廣東一站","routes":["513"]},"PIF302268":{"lat":22.687791,"lon":120.489501,"name":"廣東二站","routes":["513"]},"PIF302269":{"lat":22.686201,"lon":120.495199,"name":"廣東三站","routes":["513"]},"PIF302270":{"lat":22.6695,"lon":120.498394,"name":"屏大附小","routes":["513"]},"PIF302271":{"lat":22.664581,"lon":120.493074,"name":"廣南站","routes":["513"]},"PIF302272":{"lat":22.66587,"lon":120.4888,"name":"南區市場","routes":["506","513","515"]},"PIF302273":{"lat":22.669445,"lon":120.485111,"name":"屏東轉運站","routes":["515"]},"PIF302274":{"lat":22.68929,"lon":120.47538,"name":"廣勝一站","routes":["515"]},"PIF302276":{"lat":22.689609,"lon":120.482207,"name":"廣勝二站","routes":["515"]},"PIF302279":{"lat":22.687079,"lon":120.484063,"name":"中廣路口","routes":["515"]},"PIF302281":{"lat":22.638991,"lon":120.454839,"name":"南一站","routes":["516"]},"PIF302282":{"lat":22.681392,"lon":120.484678,"name":"寶建醫院","routes":["515"]},"PIF302283":{"lat":22.642069,"lon":120.454943,"name":"屏加站","routes":["516"]},"PIF302284":{"lat":22.63908,"lon":120.454785,"name":"南一站","routes":["516"]},"PIF302286":{"lat":22.665881,"lon":120.488596,"name":"南區市場","routes":["506","513","515"]},"PIF302290":{"lat":22.662616,"lon":120.487746,"name":"台糖前","routes":["515"]},"PIF302291":{"lat":22.65864,"lon":120.48692,"name":"復興國小","routes":["515"]},"PIF302292":{"lat":22.657657,"lon":120.484471,"name":"地方法院","routes":["515"]},"PIF302294":{"lat":22.657669,"lon":120.484742,"name":"地方法院","routes":["515"]},"PIF302295":{"lat":22.6584,"lon":120.48711,"name":"復興國小","routes":["515"]},"PIF302296":{"lat":22.6636,"lon":120.48821,"name":"台糖前","routes":["515"]},"PIF302297":{"lat":22.68694,"lon":120.484276,"name":"中廣路口","routes":["515"]},"PIF302298":{"lat":22.689747,"lon":120.482271,"name":"廣勝二站","routes":["515"]},"PIF302305":{"lat":22.664462,"lon":120.493041,"name":"廣南站","routes":["513"]},"PIF302306":{"lat":22.669451,"lon":120.498523,"name":"屏大附小","routes":["513"]},"PIF302307":{"lat":22.686342,"lon":120.495255,"name":"廣東三站","routes":["513"]},"PIF302308":{"lat":22.687865,"lon":120.489499,"name":"廣東二站","routes":["513"]},"PIF302309":{"lat":22.686764,"lon":120.480652,"name":"環保公園","routes":["513"]},"PIF302310":{"lat":22.681367,"lon":120.478035,"name":"自由崇明路口","routes":["513"]},"PIF302311":{"lat":22.677719,"lon":120.477775,"name":"大同高中2","routes":["513"]},"PIF302578":{"lat":22.017524,"lon":120.72312,"name":"三溝","routes":["308"]},"PIF302705":{"lat":22.6923,"lon":120.58121,"name":"勵古百合分校","routes":["幸福霧臺1路"]},"PIF302706":{"lat":22.696148,"lon":120.599601,"name":"美園社區","routes":["幸福霧臺1路"]},"PIF302711":{"lat":22.700387,"lon":120.647077,"name":"禮納里(好茶部落)","routes":["幸福霧臺1路","幸福霧臺3路"]},"PIF302719":{"lat":22.745557,"lon":120.705118,"name":"谷川社區","routes":["幸福霧臺1路","幸福霧臺2路","幸福霧臺3路"]},"PIF302727":{"lat":21.969821,"lon":120.755386,"name":"南光路口","routes":["102"]},"PIF302728":{"lat":22.643593,"lon":120.602465,"name":"生物科技系","routes":["510"]},"PIF302729":{"lat":22.643593,"lon":120.602465,"name":"生物科技系","routes":["510"]},"PIF302810":{"lat":22.351191,"lon":120.385168,"name":"白砂觀光碼頭","routes":["601"]},"PIF302811":{"lat":22.35082139,"lon":120.3800334,"name":"市場","routes":["601"]},"PIF302812":{"lat":22.35402,"lon":120.38098,"name":"遊客中心","routes":["601"]},"PIF302813":{"lat":22.35447272,"lon":120.375321,"name":"美人洞","routes":["601"]},"PIF302814":{"lat":22.35318,"lon":120.3731,"name":"望海亭","routes":["601"]},"PIF302815":{"lat":22.35185,"lon":120.37062,"name":"小山看海","routes":["601"]},"PIF302817":{"lat":22.34465,"lon":120.36273,"name":"杉福砲台","routes":["601"]},"PIF302818":{"lat":22.34073,"lon":120.36401,"name":"杉福漁港","routes":["601"]},"PIF302819":{"lat":22.33863515,"lon":120.3622347,"name":"山豬溝","routes":["601"]},"PIF302820":{"lat":22.3359,"lon":120.36171,"name":"蛤板灣","routes":["601"]},"PIF302821":{"lat":22.33197,"lon":120.359,"name":"長春亭","routes":["601"]},"PIF302822":{"lat":22.33032,"lon":120.35591,"name":"烏鬼洞","routes":["601"]},"PIF302823":{"lat":22.32524,"lon":120.35348,"name":"落日亭","routes":["601"]},"PIF302825":{"lat":22.32289,"lon":120.36156,"name":"觀音石","routes":["601"]},"PIF302826":{"lat":22.32600944,"lon":120.3658981,"name":"厚石澳沙灘","routes":["601"]},"PIF302828":{"lat":22.33464,"lon":120.37418,"name":"大福漁港","routes":["601"]},"PIF302884":{"lat":22.669445,"lon":120.485111,"name":"屏東轉運站","routes":["505","506","513","515","516"]},"PIF303335":{"lat":22.66236222,"lon":120.6312167,"name":"銘泉農場","routes":["605"]},"PIF303336":{"lat":22.662277,"lon":120.63115,"name":"銘泉農場","routes":["605"]},"PIF303337":{"lat":22.755005,"lon":120.501794,"name":"後庄國小","routes":["511"]},"PIF303338":{"lat":22.754999,"lon":120.50183,"name":"後庄國小","routes":["511"]},"PIF303339":{"lat":22.757,"lon":120.5179,"name":"永隆村","routes":["511"]},"PIF303340":{"lat":22.7572,"lon":120.5179,"name":"永隆村","routes":["511"]},"PIF303341":{"lat":22.75813493,"lon":120.5294813,"name":"大山寮","routes":["511"]},"PIF303342":{"lat":22.758249,"lon":120.529326,"name":"大山寮","routes":["511"]},"PIF303343":{"lat":22.721262,"lon":120.617273,"name":"下振興","routes":["511"]},"PIF303344":{"lat":22.721336,"lon":120.617311,"name":"下振興","routes":["511"]},"PIF303345":{"lat":22.696066,"lon":120.630566,"name":"涼山7-11","routes":["511","603"]},"PIF303346":{"lat":22.696362,"lon":120.630536,"name":"涼山7-11","routes":["511","603"]},"PIF303396":{"lat":22.345909,"lon":120.376102,"name":"三隆宮","routes":["601"]},"PIF303401":{"lat":22.338191,"lon":120.369689,"name":"碧雲寺","routes":["601"]},"PIF303411":{"lat":22.62780833,"lon":120.53369167,"name":"永豐村","routes":["517"]},"PIF303412":{"lat":22.616556,"lon":120.52673,"name":"西勢火車站","routes":["517"]},"PIF303414":{"lat":22.617436,"lon":120.523375,"name":"客家文物館","routes":["517"]},"PIF303415":{"lat":22.606765,"lon":120.520356,"name":"六雲宮","routes":["517"]},"PIF303416":{"lat":22.606845,"lon":120.520381,"name":"六雲宮","routes":["517"]},"PIF303428":{"lat":22.577946,"lon":120.517347,"name":"大湖社區活動中心","routes":["517"]},"PIF303429":{"lat":22.567747,"lon":120.508766,"name":"六份社區活動中心","routes":["517"]},"PIF303899":{"lat":21.98891,"lon":120.845681,"name":"漁村公園","routes":["103"]},"PIF303929":{"lat":22.367899,"lon":120.595033,"name":"枋寮車站","routes":["518"]},"PIF303930":{"lat":22.089297,"lon":120.7155315,"name":"看海美術館","routes":["518"]},"PIF303931":{"lat":22.089438,"lon":120.715906,"name":"看海美術館","routes":["518"]},"PIF303933":{"lat":22.069627,"lon":120.710003,"name":"車城福安宮","routes":["518"]},"PIF303934":{"lat":22.069627,"lon":120.710003,"name":"車城福安宮","routes":["518"]},"PIF303935":{"lat":22.07237,"lon":120.71391,"name":"車城","routes":["518"]},"PIF304087":{"lat":21.91605,"lon":120.84058,"name":"番仔寮","routes":["101"]},"PIF304102":{"lat":22.661809,"lon":120.491934,"name":"屏東市公所","routes":["506"]},"PIF304103":{"lat":22.661971,"lon":120.492025,"name":"屏東市公所","routes":["506"]},"PIF304104":{"lat":22.660915,"lon":120.495568,"name":"屏東縣民公園","routes":["506"]},"PIF304105":{"lat":22.683887,"lon":120.484352,"name":"安和醫院","routes":["515"]},"PIF304106":{"lat":22.684038,"lon":120.484532,"name":"安和醫院","routes":["515"]},"PIF304108":{"lat":22.677428,"lon":120.497383,"name":"國民運動中心","routes":["516"]},"PIF304109":{"lat":22.677101,"lon":120.498309,"name":"國民運動中心","routes":["516"]},"PIF304110":{"lat":22.676123,"lon":120.494056,"name":"屏東體育館","routes":["509","516"]},"PIF304111":{"lat":22.676155,"lon":120.494155,"name":"屏東體育館","routes":["509","516"]},"PIF304112":{"lat":22.65879,"lon":120.473384,"name":"鶴聲國中","routes":["515"]},"PIF304113":{"lat":22.658708,"lon":120.473287,"name":"鶴聲國中","routes":["515"]},"PIF304114":{"lat":22.6744,"lon":120.49014,"name":"屏東演武場","routes":["516"]},"PIF304115":{"lat":22.661983,"lon":120.472891,"name":"屏東家扶中心","routes":["515"]},"PIF304116":{"lat":22.661983,"lon":120.472891,"name":"屏東家扶中心","routes":["515"]},"PIF304117":{"lat":22.665875,"lon":120.475878,"name":"大同國小","routes":["516"]},"PIF304118":{"lat":22.660963,"lon":120.469506,"name":"青果社","routes":["516"]},"PIF304119":{"lat":22.661271,"lon":120.469823,"name":"青果社","routes":["516"]},"PIF304120":{"lat":22.658268,"lon":120.467967,"name":"建國路","routes":["516"]},"PIF304121":{"lat":22.658314,"lon":120.468075,"name":"建國路","routes":["516"]},"PIF304122":{"lat":22.654469,"lon":120.463126,"name":"西屏東","routes":["516"]},"PIF304123":{"lat":22.654406,"lon":120.463649,"name":"西屏東","routes":["516"]},"PIF304124":{"lat":22.64848,"lon":120.44982,"name":"大慶工業區2(HONDA)","routes":["516"]},"PIF304125":{"lat":22.64747,"lon":120.45382,"name":"加工區1(河見電機)","routes":["516"]},"PIF304126":{"lat":22.64792,"lon":120.45384,"name":"加工區1(河見電機)","routes":["516"]},"PIF304127":{"lat":22.64482,"lon":120.45464,"name":"加工區2(瑞展動能)","routes":["516"]},"PIF304128":{"lat":22.64385,"lon":120.45496,"name":"加工區3(凡事康科技)","routes":["516"]},"PIF304129":{"lat":22.64395,"lon":120.45509,"name":"加工區3(凡事康科技)","routes":["516"]},"PIF304130":{"lat":22.63523,"lon":120.45568,"name":"加工區4(雄雞企業)","routes":["516"]},"PIF304131":{"lat":22.63625,"lon":120.4569,"name":"加工區5(京茂機電)","routes":["516"]},"PIF304132":{"lat":22.6706989,"lon":120.4873436,"name":"逢甲路","routes":["516"]},"PIF304136":{"lat":22.64476,"lon":120.45482,"name":"加工區2(瑞展動能)","routes":["516"]},"PIF304139":{"lat":22.666033,"lon":120.476,"name":"大同國小","routes":["516"]},"PIF304159":{"lat":22.572291,"lon":120.56716,"name":"萬巒豬腳街","routes":["605"]},"PIF304160":{"lat":22.572595,"lon":120.567415,"name":"萬巒豬腳街","routes":["605"]},"PIF304169":{"lat":22.672576,"lon":120.510529,"name":"中正國中","routes":["509"]},"PIF304172":{"lat":22.653862,"lon":120.561317,"name":"四十份","routes":["509"]},"PIF304179":{"lat":22.643033,"lon":120.614055,"name":"孟祥體育館","routes":["509"]},"PIF304181":{"lat":22.643311,"lon":120.613821,"name":"孟祥體育館","routes":["509"]},"PIF304182":{"lat":22.654094,"lon":120.560639,"name":"四十份","routes":["509"]},"PIF304183":{"lat":22.67277,"lon":120.5106,"name":"中正國中","routes":["509"]},"PIF304184":{"lat":22.68283,"lon":120.4991,"name":"萬福宮","routes":["509"]},"PIF304222":{"lat":22.637299,"lon":120.585346,"name":"西銀路口","routes":["509"]},"PIF304223":{"lat":22.63736,"lon":120.585451,"name":"西銀路口","routes":["509"]},"PIF304224":{"lat":22.037236,"lon":120.83341,"name":"下響林","routes":["304"]},"PIF304225":{"lat":22.03731,"lon":120.83318,"name":"下響林","routes":["304"]},"PIF304242":{"lat":22.57801,"lon":120.51741,"name":"大湖社區活動中心","routes":["小黃公車732"]},"PIF304243":{"lat":22.575661,"lon":120.524871,"name":"大明國小","routes":["517"]},"PIF304246":{"lat":22.1926446,"lon":120.8810909,"name":"旭海村","routes":["302"]},"PIF304249":{"lat":22.1084,"lon":120.86309,"name":"三灣","routes":["304"]},"PIF304250":{"lat":22.1084,"lon":120.86309,"name":"三灣","routes":["304"]},"PIF304456":{"lat":22.57033,"lon":120.507865,"name":"鳳明衛生室","routes":["517"]},"PIF304457":{"lat":22.57033,"lon":120.507865,"name":"鳳明衛生室","routes":["517"]},"PIF304458":{"lat":22.58882,"lon":120.52015,"name":"大新路","routes":["517"]},"PIF304567":{"lat":22.64797,"lon":120.5293,"name":"國光客運麟洛站","routes":["509"]},"PIF304627":{"lat":22.13088,"lon":120.87826,"name":"港仔溪","routes":["304"]},"PIF304630":{"lat":22.0205737,"lon":120.8387337,"name":"滿州","routes":["303","304"]},"PIF304631":{"lat":22.02023956,"lon":120.8385506,"name":"滿州","routes":["303","304"]},"PIF304894":{"lat":22.669673,"lon":120.484816,"name":"屏東轉運站","routes":["506","508","小黃公車733"]},"PIF304895":{"lat":22.746776,"lon":120.706271,"name":"谷川大橋遊憩區","routes":["508"]},"PIF304896":{"lat":22.75071,"lon":120.727239,"name":"神山部落(霧台鄉公所)","routes":["508"]},"PIF304897":{"lat":22.744393,"lon":120.732097,"name":"霧台部落","routes":["508"]},"PIF304899":{"lat":22.699893,"lon":120.644193,"name":"禮納里部落","routes":["508"]},"PIF304968":{"lat":22.12916,"lon":120.87462,"name":"溪清路","routes":["304"]},"PIF304969":{"lat":22.12916,"lon":120.87462,"name":"溪清路","routes":["304"]},"PIF305228":{"lat":22.572849,"lon":120.5983,"name":"屏東可可園區","routes":["605"]},"PIF305229":{"lat":22.572689,"lon":120.598166,"name":"屏東可可園區","routes":["605"]},"PIF305258":{"lat":22.709637,"lon":120.635992,"name":"水門轉運站","routes":["511","603","605"]},"PIF305262":{"lat":22.66604,"lon":120.51273,"name":"香楊","routes":["509"]},"PIF305263":{"lat":22.126108,"lon":120.774378,"name":"牡丹鄉公所","routes":["幸福牡丹1路"]},"PIF305264":{"lat":22.120676,"lon":120.846712,"name":"高士村集會所","routes":["幸福牡丹1路"]},"PIF305265":{"lat":22.0743956,"lon":120.814701,"name":"四林村辦公處","routes":["幸福牡丹1路"]},"PIF305266":{"lat":22.00273,"lon":120.74163,"name":"恆春基督教醫院","routes":["小黃公車716","幸福牡丹1路"]},"PIF305267":{"lat":22.002433,"lon":120.74107,"name":"恆春基督教醫院","routes":["幸福牡丹1路"]},"PIF305268":{"lat":22.073942,"lon":120.814658,"name":"四林村辦公處","routes":["幸福牡丹1路"]},"PIF305269":{"lat":22.120706,"lon":120.846669,"name":"高士村集會所","routes":["幸福牡丹1路"]},"PIF305271":{"lat":22.175635,"lon":120.837722,"name":"牡丹村集會所","routes":["幸福牡丹1路"]},"PIF305272":{"lat":22.205654,"lon":120.853092,"name":"東源村集會所","routes":["幸福牡丹1路"]},"PIF305344":{"lat":22.709744,"lon":120.635929,"name":"水門轉運站","routes":["606"]},"PIF305346":{"lat":22.67305,"lon":120.49555,"name":"屏東醫院","routes":["幸福泰武3路"]},"PIF305348":{"lat":22.68287,"lon":120.50197,"name":"屏東基督教醫院","routes":["幸福來義2路","幸福來義5路","幸福泰武3路"]},"PIF305386":{"lat":22.19108,"lon":120.87971,"name":"旭海村集會所","routes":["幸福牡丹1路"]},"PIF305392":{"lat":22.56086275,"lon":120.6623806,"name":"大後天主教堂","routes":["幸福來義5路","幸福來義8路"]},"PIF305394":{"lat":22.526133,"lon":120.676269,"name":"來義村辦公處","routes":["幸福來義10路","幸福來義5路","幸福來義7路","幸福來義8路"]},"PIF305396":{"lat":22.5276,"lon":120.66146,"name":"義林集會所","routes":["幸福來義10路","幸福來義5路","幸福來義7路","幸福來義8路"]},"PIF305397":{"lat":22.5175,"lon":120.633889,"name":"丹林活動中心","routes":["幸福來義10路","幸福來義1路","幸福來義2路","幸福來義5路","幸福來義7路"]},"PIF305401":{"lat":22.5088,"lon":120.58238,"name":"新來義活動中心","routes":["幸福來義10路","幸福來義2路","幸福來義3路","幸福來義5路","幸福來義7路","幸福來義8路","幸福來義9路"]},"PIF305404":{"lat":22.508838,"lon":120.582105,"name":"新來義活動中心","routes":["幸福來義2路","幸福來義3路","幸福來義5路","幸福來義9路"]},"PIF305405":{"lat":22.5175,"lon":120.633889,"name":"丹林活動中心","routes":["幸福來義11路","幸福來義12路","幸福來義1路"]},"PIF305413":{"lat":22.757722,"lon":120.754107,"name":"小山","routes":["幸福霧臺2路"]},"PIF305414":{"lat":22.754976,"lon":120.758872,"name":"東川(多功能活動中心)","routes":["幸福霧臺2路"]},"PIF305446":{"lat":22.765162,"lon":120.725471,"name":"舊佳暮部落","routes":["幸福霧臺3路"]},"PIF305447":{"lat":22.762537,"lon":120.719395,"name":"新佳暮部落","routes":["幸福霧臺3路"]},"PIF305448":{"lat":22.700387,"lon":120.647077,"name":"禮納里(好茶部落)","routes":["幸福霧臺6路"]},"PIF305451":{"lat":22.658241,"lon":120.514474,"name":"國仁醫院","routes":["幸福泰武3路"]},"PIF305452":{"lat":22.704794,"lon":120.641076,"name":"水門夜市","routes":["603"]},"PIF305453":{"lat":22.704834,"lon":120.641118,"name":"水門夜市","routes":["603"]},"PIF305454":{"lat":22.703044,"lon":120.647955,"name":"瑪家遊客中心","routes":["603"]},"PIF305455":{"lat":22.702587,"lon":120.647698,"name":"瑪家遊客中心","routes":["603"]},"PIF305456":{"lat":22.699992,"lon":120.644224,"name":"禮納里","routes":["603"]},"PIF305457":{"lat":22.699824,"lon":120.644158,"name":"禮納里","routes":["603"]},"PIF305458":{"lat":22.70887,"lon":120.649213,"name":"瑪家鄉公所","routes":["幸福瑪家1路"]},"PIF305459":{"lat":22.690198,"lon":120.634551,"name":"涼山村口涼亭","routes":["幸福瑪家1路"]},"PIF305460":{"lat":22.653885,"lon":120.629996,"name":"佳義國小前路口","routes":["幸福瑪家1路"]},"PIF305461":{"lat":22.62982,"lon":120.62658,"name":"排灣村活動中心","routes":["幸福瑪家1路"]},"PIF305462":{"lat":22.633292,"lon":120.598103,"name":"老埤村T字路口7-11","routes":["幸福瑪家1路"]},"PIF305463":{"lat":22.610847,"lon":120.570143,"name":"內埔國中","routes":["幸福瑪家1路"]},"PIF305464":{"lat":22.702324,"lon":120.609501,"name":"瑪家國中","routes":["幸福瑪家1路"]},"PIF305497":{"lat":22.59152,"lon":120.62931,"name":"法蒂瑪教堂","routes":["幸福泰武1路"]},"PIF305498":{"lat":22.606045,"lon":120.61109,"name":"泰小幼兒園","routes":["幸福泰武1路"]},"PIF305499":{"lat":22.6226015,"lon":120.6345852,"name":"成志路","routes":["幸福泰武1路"]},"PIF305500":{"lat":22.626618,"lon":120.63837,"name":"萬安部落","routes":["幸福泰武1路"]},"PIF305501":{"lat":22.61269,"lon":120.63169,"name":"馬仕部落","routes":["幸福泰武1路"]},"PIF305502":{"lat":22.591648,"lon":120.63203,"name":"泰武鄉公所","routes":["幸福泰武1路","幸福泰武2路","幸福泰武3路","幸福泰武5路","幸福泰武6路"]},"PIF305504":{"lat":22.552838,"lon":120.629265,"name":"平和部落","routes":["幸福泰武1路"]},"PIF305505":{"lat":22.78796,"lon":120.630462,"name":"馬兒村","routes":["幸福三地門1路","幸福三地門2路","幸福三地門3路"]},"PIF305507":{"lat":22.57867,"lon":120.63438,"name":"武潭部落","routes":["幸福泰武1路"]},"PIF305510":{"lat":22.59187,"lon":120.632825,"name":"舊武潭部落","routes":["幸福泰武1路"]},"PIF305513":{"lat":22.56993,"lon":120.66201,"name":"佳興部落","routes":["幸福泰武1路"]},"PIF305514":{"lat":22.36807,"lon":120.663691,"name":"士文分駐所","routes":["幸福春日2路"]},"PIF305515":{"lat":22.35927,"lon":120.62775,"name":"古華活動中心","routes":["幸福春日2路"]},"PIF305516":{"lat":22.37027,"lon":120.62518,"name":"春日集會所","routes":["幸福春日2路"]},"PIF305563":{"lat":22.6154,"lon":120.566255,"name":"內埔天后宮","routes":["幸福泰武3路"]},"PIF305564":{"lat":22.68314,"lon":120.48796,"name":"屏東縣政府","routes":["幸福泰武3路"]},"PIF305565":{"lat":22.6687,"lon":120.48605,"name":"屏東火車站","routes":["幸福泰武3路"]},"PIF305653":{"lat":22.5723,"lon":120.59511,"name":"萬巒鄉佳佐國小","routes":["幸福泰武2路","幸福泰武5路"]},"PIF305654":{"lat":22.5728,"lon":120.56775,"name":"萬巒鄉公所","routes":["幸福泰武2路","幸福泰武5路"]},"PIF305655":{"lat":22.554,"lon":120.54692,"name":"潮州安泰醫院","routes":["幸福泰武5路"]},"PIF305656":{"lat":22.54979,"lon":120.54527,"name":"潮州高中","routes":["幸福泰武5路"]},"PIF305657":{"lat":22.47446,"lon":120.45893,"name":"東港安泰醫院","routes":["幸福泰武2路","幸福泰武5路"]},"PIF305692":{"lat":22.696256,"lon":120.599513,"name":"美園社區","routes":["幸福霧臺1路"]},"PIF305693":{"lat":22.5258,"lon":120.63146,"name":"來義鄉公所","routes":["幸福來義7路"]},"PIF305702":{"lat":22.43745,"lon":120.646853,"name":"南和橋","routes":["幸福春日1路"]},"PIF305703":{"lat":22.43348,"lon":120.64745,"name":"力里村(力里衛生室)","routes":["幸福春日1路"]},"PIF305704":{"lat":22.428414,"lon":120.628764,"name":"力里國小","routes":["幸福春日1路"]},"PIF305705":{"lat":22.428237,"lon":120.628118,"name":"春日鄉社會福利館","routes":["幸福春日1路"]},"PIF305706":{"lat":22.386856,"lon":120.601862,"name":"建興國小","routes":["幸福春日1路"]},"PIF305714":{"lat":22.560863,"lon":120.662381,"name":"大後天主教堂","routes":["幸福來義10路","幸福來義7路"]},"PIF305716":{"lat":22.493205,"lon":120.624368,"name":"文樂村文化聚會所","routes":["幸福來義10路","幸福來義11路","幸福來義1路","幸福來義2路","幸福來義3路","幸福來義7路","幸福來義8路"]},"PIF305717":{"lat":22.46363,"lon":120.621484,"name":"望嘉社區活動中心","routes":["幸福來義1路","幸福來義7路"]},"PIF305718":{"lat":22.435784,"lon":120.640609,"name":"南和村衛生室","routes":["幸福來義1路","幸福來義2路","幸福來義3路","幸福來義7路"]},"PIF305719":{"lat":22.508838,"lon":120.582105,"name":"新來義活動中心","routes":["幸福來義10路","幸福來義7路"]},"PIF305720":{"lat":22.553889,"lon":120.546944,"name":"潮州安泰醫院","routes":["幸福來義7路"]},"PIF305721":{"lat":22.556111,"lon":120.539167,"name":"茂隆骨科","routes":["幸福來義7路"]},"PIF305722":{"lat":22.552881,"lon":120.537445,"name":"潮榮聯合診所","routes":["幸福來義7路"]},"PIF305723":{"lat":22.383648,"lon":120.595334,"name":"建興寺","routes":["幸福春日1路"]},"PIF305725":{"lat":22.43575,"lon":120.64068,"name":"南和村衛生室","routes":["幸福來義10路","幸福來義1路","幸福來義2路","幸福來義3路","幸福來義7路","幸福來義8路"]},"PIF305726":{"lat":22.46363,"lon":120.621484,"name":"望嘉社區活動中心","routes":["幸福來義2路","幸福來義3路"]},"PIF305750":{"lat":22.64441,"lon":120.446828,"name":"大慶工業區1(元晶)","routes":["516"]},"PIF305769":{"lat":22.641132,"lon":120.462968,"name":"屏東大洲社區","routes":["小黃公車701"]},"PIF305770":{"lat":22.65086,"lon":120.46436,"name":"屏東前進社區","routes":["小黃公車701"]},"PIF305771":{"lat":22.660428,"lon":120.481513,"name":"復興圖書館","routes":["小黃公車701"]},"PIF305772":{"lat":22.660508,"lon":120.481406,"name":"復興圖書館","routes":["小黃公車701"]},"PIF305774":{"lat":22.66191,"lon":120.49155,"name":"屏東市公所(預約站)","routes":["小黃公車701","小黃公車702","小黃公車703","小黃公車725"]},"PIF305775":{"lat":22.66208,"lon":120.49164,"name":"屏東市公所(預約站)","routes":["小黃公車701","小黃公車702","小黃公車703","小黃公車725"]},"PIF305777":{"lat":22.66965,"lon":120.48548,"name":"屏東轉運站","routes":["小黃公車701","小黃公車702","小黃公車703","小黃公車705","小黃公車706","小黃公車725","小黃公車726","小黃公車732","小黃公車751"]},"PIF305780":{"lat":22.68357,"lon":120.48721,"name":"屏東縣政府","routes":["小黃公車701","小黃公車702","小黃公車703","小黃公車725"]},"PIF305783":{"lat":22.6841,"lon":120.5008,"name":"和平公園站","routes":["小黃公車725"]},"PIF305784":{"lat":22.68418,"lon":120.50088,"name":"和平公園站","routes":["小黃公車725"]},"PIF305785":{"lat":22.6828,"lon":120.5028,"name":"屏東基督教醫院","routes":["小黃公車701","小黃公車702","小黃公車703","小黃公車705","小黃公車706","小黃公車725","小黃公車726","小黃公車732","小黃公車751"]},"PIF305786":{"lat":22.679644,"lon":120.49816,"name":"屏東總圖","routes":["小黃公車701","小黃公車702","小黃公車703","小黃公車705","小黃公車706","小黃公車725","小黃公車726","小黃公車732"]},"PIF305787":{"lat":22.67941,"lon":120.49837,"name":"屏東總圖","routes":["小黃公車701","小黃公車702","小黃公車703","小黃公車705","小黃公車706","小黃公車725","小黃公車726","小黃公車732"]},"PIF305788":{"lat":22.67362,"lon":120.496545,"name":"屏東醫院","routes":["小黃公車701","小黃公車702","小黃公車703","小黃公車705","小黃公車706","小黃公車732","小黃公車751"]},"PIF305789":{"lat":22.67365,"lon":120.49627,"name":"屏東醫院","routes":["小黃公車701","小黃公車702","小黃公車703","小黃公車705","小黃公車706","小黃公車732","小黃公車751"]},"PIF305796":{"lat":22.679567,"lon":120.498396,"name":"屏東總圖","routes":["506"]},"PIF305799":{"lat":22.63654,"lon":120.47375,"name":"屏東玉成社區","routes":["小黃公車702"]},"PIF305800":{"lat":22.64052,"lon":120.47807,"name":"天后宮站","routes":["小黃公車702"]},"PIF305801":{"lat":22.64281,"lon":120.48203,"name":"屏東新興社區","routes":["小黃公車702"]},"PIF305802":{"lat":22.64732,"lon":120.48502,"name":"屏東太子社區","routes":["小黃公車702"]},"PIF305814":{"lat":22.62533,"lon":120.50416,"name":"大春站","routes":["小黃公車703"]},"PIF305815":{"lat":22.62479,"lon":120.49576,"name":"大湖站","routes":["小黃公車703"]},"PIF305816":{"lat":22.64457,"lon":120.49905,"name":"屏東頂柳社區","routes":["小黃公車703"]},"PIF305817":{"lat":22.65546,"lon":120.50444,"name":"慈天宮站","routes":["小黃公車703"]},"PIF305818":{"lat":22.65535,"lon":120.50114,"name":"屏東歸來社區","routes":["小黃公車703"]},"PIF305820":{"lat":22.66965,"lon":120.52048,"name":"太子宮站","routes":["小黃公車705"]},"PIF305821":{"lat":22.67027,"lon":120.5218,"name":"香潭托兒所","routes":["小黃公車705"]},"PIF305822":{"lat":22.67663,"lon":120.52681,"name":"長治衛生所","routes":["小黃公車705"]},"PIF305827":{"lat":22.69498,"lon":120.54859,"name":"長治德協社區","routes":["小黃公車706"]},"PIF305828":{"lat":22.69569,"lon":120.53398,"name":"三奶宮站","routes":["小黃公車706"]},"PIF305829":{"lat":22.69289,"lon":120.52831,"name":"長治德榮社區","routes":["小黃公車706"]},"PIF305830":{"lat":22.54975,"lon":120.54305,"name":"潮州鎮公所","routes":["小黃公車707","小黃公車708","小黃公車710","小黃公車733"]},"PIF305831":{"lat":22.55414,"lon":120.54695,"name":"潮州安泰醫院","routes":["小黃公車707","小黃公車708","小黃公車710","小黃公車733"]},"PIF305832":{"lat":22.55609,"lon":120.53913,"name":"茂隆骨科","routes":["小黃公車707","小黃公車708","小黃公車709","小黃公車710","小黃公車733"]},"PIF305833":{"lat":22.55088,"lon":120.53657,"name":"潮州轉運站","routes":["小黃公車707","小黃公車708","小黃公車710","小黃公車733"]},"PIF305834":{"lat":22.51906,"lon":120.59425,"name":"中福宮(預約站)","routes":["小黃公車710"]},"PIF305835":{"lat":22.51067,"lon":120.60058,"name":"海豐寮社區","routes":["小黃公車707"]},"PIF305836":{"lat":22.50818,"lon":120.58676,"name":"萬隆社區","routes":["小黃公車707"]},"PIF305837":{"lat":22.50885,"lon":120.58225,"name":"新來義部落","routes":["小黃公車707"]},"PIF305838":{"lat":22.5204,"lon":120.57331,"name":"崙新站","routes":["小黃公車707"]},"PIF305839":{"lat":22.52508,"lon":120.56994,"name":"舊莊社區","routes":["小黃公車707"]},"PIF305840":{"lat":22.53505,"lon":120.55755,"name":"鳳尾社區","routes":["小黃公車707"]},"PIF305841":{"lat":22.53682,"lon":120.55104,"name":"彭城社區","routes":["小黃公車707"]},"PIF305842":{"lat":22.5621,"lon":120.4684,"name":"香社福德宮","routes":["小黃公車709"]},"PIF305843":{"lat":22.56165,"lon":120.48372,"name":"萬丹新鐘社區","routes":["小黃公車709"]},"PIF305844":{"lat":22.55701,"lon":120.49009,"name":"萬丹水仙村","routes":["小黃公車709"]},"PIF305845":{"lat":22.5531,"lon":120.49511,"name":"萬丹興全社區","routes":["小黃公車709"]},"PIF305846":{"lat":22.54833,"lon":120.49581,"name":"萬丹興安社區","routes":["小黃公車709"]},"PIF305847":{"lat":22.54069,"lon":120.5095,"name":"崁頂力社社區","routes":["小黃公車709"]},"PIF305864":{"lat":22.59506,"lon":120.61062,"name":"萬金教堂","routes":["小黃公車708"]},"PIF305865":{"lat":22.57223,"lon":120.59517,"name":"萬巒鄉佳佐國小","routes":["小黃公車708"]},"PIF305866":{"lat":22.57248,"lon":120.56772,"name":"萬巒鄉代會","routes":["小黃公車708"]},"PIF305867":{"lat":22.5887,"lon":120.61135,"name":"赤山社區","routes":["小黃公車708"]},"PIF305868":{"lat":22.57219,"lon":120.61041,"name":"先帝廟","routes":["小黃公車708"]},"PIF305869":{"lat":22.56969,"lon":120.60758,"name":"新和宮","routes":["小黃公車708"]},"PIF305870":{"lat":22.56788,"lon":120.60225,"name":"佳佐社區","routes":["小黃公車708"]},"PIF305871":{"lat":22.56995,"lon":120.59966,"name":"三和宮","routes":["小黃公車708"]},"PIF305872":{"lat":22.57157,"lon":120.57463,"name":"萬巒國中","routes":["小黃公車708"]},"PIF305877":{"lat":22.47227,"lon":120.52291,"name":"南洲同安社區","routes":["小黃公車711"]},"PIF305878":{"lat":22.4842,"lon":120.51845,"name":"米崙社區","routes":["小黃公車711"]},"PIF305879":{"lat":22.48881,"lon":120.51315,"name":"弘全幼兒園","routes":["小黃公車711"]},"PIF305880":{"lat":22.49038,"lon":120.50997,"name":"南州鄉公所","routes":["小黃公車711","小黃公車736A"]},"PIF305881":{"lat":22.49218,"lon":120.51152,"name":"南州車站","routes":["小黃公車711"]},"PIF305887":{"lat":22.52459,"lon":120.53302,"name":"大腳森林","routes":["小黃公車710"]},"PIF305888":{"lat":22.47347,"lon":120.45978,"name":"東港安泰醫院","routes":["小黃公車711","小黃公車739"]},"PIF305890":{"lat":22.46537,"lon":120.45307,"name":"輔英醫院","routes":["小黃公車711","小黃公車712","小黃公車713","小黃公車715","小黃公車736","小黃公車736A","小黃公車739"]},"PIF305896":{"lat":22.48159,"lon":120.50123,"name":"南安宮","routes":["小黃公車711"]},"PIF305897":{"lat":22.48443,"lon":120.50265,"name":"慈惠宿舍","routes":["小黃公車711"]},"PIF305898":{"lat":22.48836,"lon":120.5054,"name":"代天府","routes":["小黃公車711"]},"PIF305899":{"lat":22.49035,"lon":120.49499,"name":"番仔厝","routes":["小黃公車711"]},"PIF305900":{"lat":22.48855,"lon":120.48937,"name":"慈惠醫專","routes":["小黃公車711"]},"PIF305901":{"lat":22.4881,"lon":120.48425,"name":"東港興和社區","routes":["小黃公車711"]},"PIF305902":{"lat":22.48757,"lon":120.46993,"name":"環美社區","routes":["小黃公車711"]},"PIF305903":{"lat":22.48882,"lon":120.4722,"name":"海坪九龍宮","routes":["小黃公車711"]},"PIF305904":{"lat":22.47855,"lon":120.46477,"name":"東興國小","routes":["小黃公車711"]},"PIF305905":{"lat":22.47285,"lon":120.46465,"name":"東新國中","routes":["小黃公車711"]},"PIF305906":{"lat":22.45614,"lon":120.49219,"name":"東港大潭社區","routes":["小黃公車715"]},"PIF305911":{"lat":22.46386,"lon":120.4674,"name":"東港船頭社區","routes":["小黃公車715"]},"PIF305912":{"lat":22.46169,"lon":120.46605,"name":"船頭里","routes":["小黃公車715"]},"PIF306006":{"lat":22.479259,"lon":120.465554,"name":"內關帝","routes":["519"]},"PIF306007":{"lat":22.479148,"lon":120.465315,"name":"內關帝","routes":["519"]},"PIF306008":{"lat":22.48629,"lon":120.489108,"name":"慈惠醫專","routes":["519"]},"PIF306009":{"lat":22.489057,"lon":120.505183,"name":"南州代天府","routes":["519"]},"PIF306010":{"lat":22.48906,"lon":120.505372,"name":"南州代天府","routes":["519"]},"PIF306011":{"lat":22.513106,"lon":120.511128,"name":"崁頂派出所","routes":["519"]},"PIF306012":{"lat":22.513204,"lon":120.511268,"name":"崁頂派出所","routes":["519"]},"PIF306013":{"lat":22.514497,"lon":120.513349,"name":"崁頂","routes":["519"]},"PIF306014":{"lat":22.514415,"lon":120.513205,"name":"崁頂","routes":["519"]},"PIF306015":{"lat":22.537937,"lon":120.533763,"name":"八老爺","routes":["519"]},"PIF306016":{"lat":22.538091,"lon":120.533799,"name":"八老爺","routes":["519"]},"PIF306017":{"lat":22.543586,"lon":120.536167,"name":"介壽路","routes":["519"]},"PIF306018":{"lat":22.544105,"lon":120.536338,"name":"介壽路","routes":["519"]},"PIF306020":{"lat":22.492754,"lon":120.511615,"name":"南州火車站","routes":["519"]},"PIF306021":{"lat":22.492702,"lon":120.511567,"name":"南州火車站","routes":["519"]},"PIF306140":{"lat":22.643161,"lon":120.613911,"name":"孟祥體育館","routes":["510"]},"PIF306141":{"lat":22.643231,"lon":120.613742,"name":"孟祥體育館","routes":["510"]},"PIF306756":{"lat":22.26393,"lon":120.65255,"name":"枋山鄉公所","routes":["幸福枋山1路"]},"PIF306757":{"lat":22.26101,"lon":120.65083,"name":"加祿國小枋山分校","routes":["幸福枋山1路"]},"PIF306758":{"lat":22.26101,"lon":120.65083,"name":"加祿國小枋山分校","routes":["幸福枋山1路"]},"PIF306759":{"lat":22.25151,"lon":120.65471,"name":"莿桐活動中心","routes":["幸福枋山1路"]},"PIF306760":{"lat":22.25151,"lon":120.65471,"name":"莿桐活動中心","routes":["幸福枋山1路"]},"PIF306761":{"lat":22.19325,"lon":120.69068,"name":"枋山鄉公所善餘村辦公處","routes":["幸福枋山1路"]},"PIF306762":{"lat":22.19325,"lon":120.69068,"name":"枋山鄉公所善餘村辦公處","routes":["幸福枋山1路"]},"PIF306763":{"lat":22.19029,"lon":120.69077,"name":"枋寮分局楓港派出所","routes":["幸福枋山1路"]},"PIF306764":{"lat":22.19029,"lon":120.69077,"name":"枋寮分局楓港派出所","routes":["幸福枋山1路"]},"PIF306765":{"lat":22.14435,"lon":120.70101,"name":"基督教中華循理會竹坑教會","routes":["幸福枋山1路"]},"PIF306766":{"lat":22.14435,"lon":120.70101,"name":"基督教中華循理會竹坑教會","routes":["幸福枋山1路"]},"PIF306767":{"lat":22.30235,"lon":120.645,"name":"內獅巷","routes":["幸福枋山1路"]},"PIF306768":{"lat":22.30235,"lon":120.645,"name":"內獅巷","routes":["幸福枋山1路"]},"PIF306769":{"lat":22.32238,"lon":120.62833,"name":"嘉和福德宮前","routes":["幸福枋山1路"]},"PIF306770":{"lat":22.32238,"lon":120.62833,"name":"嘉和福德宮前","routes":["幸福枋山1路"]},"PIF306771":{"lat":22.32811,"lon":120.62252,"name":"枋山地區農會-加祿辦事處","routes":["幸福枋山1路"]},"PIF306772":{"lat":22.32811,"lon":120.62252,"name":"枋山地區農會-加祿辦事處","routes":["幸福枋山1路"]},"PIF306773":{"lat":22.33201,"lon":120.61857,"name":"枋寮分局加祿派出所","routes":["幸福枋山1路"]},"PIF306774":{"lat":22.33201,"lon":120.61857,"name":"枋寮分局加祿派出所","routes":["幸福枋山1路"]},"PIF306775":{"lat":22.36416,"lon":120.59684,"name":"枋寮醫院","routes":["幸福枋山1路"]},"PIF306776":{"lat":22.36416,"lon":120.59684,"name":"枋寮醫院","routes":["幸福枋山1路"]},"PIF306777":{"lat":22.36795,"lon":120.59496,"name":"枋寮轉運站","routes":["幸福枋山1路"]},"PIF306778":{"lat":22.36795,"lon":120.59496,"name":"枋寮轉運站","routes":["幸福枋山1路"]},"PIF306779":{"lat":22.47446,"lon":120.45893,"name":"東港安泰醫院","routes":["幸福枋山1路"]},"PIF306780":{"lat":22.47446,"lon":120.45893,"name":"東港安泰醫院","routes":["幸福枋山1路"]},"PIF306781":{"lat":22.46792,"lon":120.44332,"name":"東港漁港漁產品直銷中心","routes":["幸福枋山1路"]},"PIF306789":{"lat":21.94583,"lon":120.79496,"name":"墾丁牌樓","routes":["101"]},"PIF306957":{"lat":22.434481,"lon":120.637354,"name":"南和文物館","routes":["幸福來義8路"]},"PIF306958":{"lat":22.435784,"lon":120.640609,"name":"南和村衛生室","routes":["幸福來義10路","幸福來義8路"]},"PIF306959":{"lat":22.46363,"lon":120.621484,"name":"望嘉社區活動中心","routes":["幸福來義10路","幸福來義8路"]},"PIF306960":{"lat":22.5175,"lon":120.633889,"name":"丹林活動中心","routes":["幸福來義8路","幸福來義9路"]},"PIF306962":{"lat":22.508838,"lon":120.582105,"name":"新來義活動中心","routes":["幸福來義8路"]},"PIF306963":{"lat":22.474418,"lon":120.458877,"name":"東港安泰醫院","routes":["幸福來義8路"]},"PIF307000":{"lat":22.465377,"lon":120.453167,"name":"輔英醫院","routes":["幸福來義8路"]},"PIF307037":{"lat":22.26393,"lon":120.65255,"name":"枋山鄉公所","routes":["幸福枋山1路"]},"PIF307038":{"lat":22.46792,"lon":120.44332,"name":"東港漁港漁產品直銷中心","routes":["幸福枋山1路"]},"PIF307275":{"lat":22.670378,"lon":120.490941,"name":"中央市場","routes":["506"]},"PIF307276":{"lat":22.670522,"lon":120.490985,"name":"中央市場","routes":["506"]},"PIF307277":{"lat":22.678742,"lon":120.491718,"name":"幸福公園","routes":["506"]},"PIF307278":{"lat":22.678604,"lon":120.491694,"name":"幸福公園","routes":["506"]},"PIF307279":{"lat":22.66391,"lon":120.5045,"name":"屏東大學民生校區","routes":["506"]},"PIF307280":{"lat":22.66391,"lon":120.50406,"name":"屏東大學民生校區","routes":["506"]},"PIF307680":{"lat":22.5509,"lon":120.53647,"name":"潮州轉運站","routes":["519","605","606"]},"PIF307681":{"lat":22.55312,"lon":120.54035,"name":"潮州日式文化園區","routes":["606"]},"PIF307682":{"lat":22.55301,"lon":120.54023,"name":"潮州日式文化園區","routes":["606"]},"PIF307683":{"lat":22.568603,"lon":120.566036,"name":"可茵山可可莊園","routes":["606"]},"PIF307684":{"lat":22.568318,"lon":120.565787,"name":"可茵山可可莊園","routes":["606"]},"PIF307685":{"lat":22.57541,"lon":120.56979,"name":"萬巒","routes":["606"]},"PIF307686":{"lat":22.575549,"lon":120.569636,"name":"萬巒","routes":["606"]},"PIF307687":{"lat":22.58817,"lon":120.58067,"name":"泗溝水","routes":["606"]},"PIF307688":{"lat":22.588241,"lon":120.580685,"name":"泗溝水","routes":["606"]},"PIF307689":{"lat":22.59109,"lon":120.59381,"name":"五溝國小","routes":["606"]},"PIF307690":{"lat":22.59118,"lon":120.5938,"name":"五溝國小","routes":["606"]},"PIF307691":{"lat":22.59085506,"lon":120.5989388,"name":"下五溝","routes":["606"]},"PIF307692":{"lat":22.590962,"lon":120.59895,"name":"下五溝","routes":["606"]},"PIF307693":{"lat":22.595,"lon":120.60885,"name":"萬金社區","routes":["606"]},"PIF307694":{"lat":22.595143,"lon":120.608754,"name":"萬金社區","routes":["603","606"]},"PIF307695":{"lat":22.6041,"lon":120.61106,"name":"吾拉魯茲 (屏東咖啡園區)","routes":["606"]},"PIF307696":{"lat":22.6041,"lon":120.61106,"name":"吾拉魯茲 (屏東咖啡園區)","routes":["606"]},"PIF307697":{"lat":22.61077,"lon":120.60229,"name":"成德","routes":["606"]},"PIF307698":{"lat":22.61071,"lon":120.60221,"name":"成德","routes":["606"]},"PIF307699":{"lat":22.64214,"lon":120.59572,"name":"屏科大","routes":["606"]},"PIF307700":{"lat":22.64201,"lon":120.59563,"name":"屏科大","routes":["606"]},"PIF307701":{"lat":22.668891,"lon":120.60016,"name":"龍泉","routes":["606"]},"PIF307702":{"lat":22.6689,"lon":120.599969,"name":"龍泉","routes":["606"]},"PIF307703":{"lat":22.6748,"lon":120.60084,"name":"榮民醫院","routes":["606"]},"PIF307704":{"lat":22.674278,"lon":120.600656,"name":"榮民醫院","routes":["606"]},"PIF307705":{"lat":22.696271,"lon":120.630084,"name":"隘寮社區","routes":["603","606"]},"PIF307706":{"lat":22.69628,"lon":120.630054,"name":"隘寮社區","routes":["606"]},"PIF307716":{"lat":22.01704,"lon":120.7071,"name":"聖皇宮","routes":["小黃公車717"]},"PIF307717":{"lat":22.01722,"lon":120.70708,"name":"聖皇宮","routes":["小黃公車717"]},"PIF307718":{"lat":22.02224,"lon":120.70742,"name":"恆春奉天宮","routes":["小黃公車717"]},"PIF307719":{"lat":22.02224,"lon":120.70742,"name":"恆春奉天宮","routes":["小黃公車717"]},"PIF307720":{"lat":22.0207,"lon":120.70803,"name":"明發商店","routes":["小黃公車717"]},"PIF307721":{"lat":22.0206,"lon":120.7081,"name":"明發商店","routes":["小黃公車717"]},"PIF307722":{"lat":22.02382,"lon":120.72093,"name":"頭溝","routes":["小黃公車716","小黃公車717"]},"PIF307723":{"lat":22.02386,"lon":120.721,"name":"頭溝","routes":["小黃公車716","小黃公車717"]},"PIF307724":{"lat":22.02202,"lon":120.72298,"name":"玉鳳宮","routes":["小黃公車717"]},"PIF307725":{"lat":22.02206,"lon":120.72287,"name":"玉鳳宮","routes":["小黃公車717"]},"PIF307729":{"lat":22.00369,"lon":120.74707,"name":"恆春鎮公所","routes":["小黃公車716","小黃公車717","小黃公車718","小黃公車722"]},"PIF307731":{"lat":22.003722,"lon":120.74714,"name":"恆春鎮公所","routes":["小黃公車716","小黃公車717","小黃公車718","小黃公車722"]},"PIF307732":{"lat":22.00291,"lon":120.74557,"name":"恆春轉運站","routes":["小黃公車716","小黃公車717","小黃公車718","小黃公車722"]},"PIF307733":{"lat":22.00283,"lon":120.74531,"name":"恆春轉運站","routes":["小黃公車716","小黃公車717","小黃公車718","小黃公車722"]},"PIF307734":{"lat":22.00068,"lon":120.74532,"name":"南門醫院","routes":["小黃公車716","小黃公車717","小黃公車718","小黃公車719","小黃公車720","小黃公車721","小黃公車722"]},"PIF307735":{"lat":22.00068,"lon":120.74532,"name":"南門醫院","routes":["小黃公車717","小黃公車718","小黃公車719","小黃公車720","小黃公車721","小黃公車722"]},"PIF307736":{"lat":21.99904,"lon":120.74474,"name":"恆春旅遊醫院","routes":["小黃公車716","小黃公車717","小黃公車718","小黃公車722"]},"PIF307737":{"lat":21.99904,"lon":120.74474,"name":"恆春旅遊醫院","routes":["小黃公車716","小黃公車717","小黃公車718","小黃公車722"]},"PIF307738":{"lat":22.00114,"lon":120.74378,"name":"恆春農會","routes":["小黃公車716","小黃公車717","小黃公車718","小黃公車720","小黃公車722"]},"PIF307739":{"lat":22.00103,"lon":120.74368,"name":"恆春農會","routes":["小黃公車716","小黃公車717","小黃公車718","小黃公車719","小黃公車720","小黃公車722"]},"PIF307740":{"lat":22.00195,"lon":120.74255,"name":"恆春郵局","routes":["小黃公車716","小黃公車717","小黃公車718","小黃公車720","小黃公車721","小黃公車722"]},"PIF307741":{"lat":22.00183,"lon":120.74264,"name":"恆春郵局","routes":["小黃公車716","小黃公車717","小黃公車718","小黃公車722"]},"PIF307742":{"lat":22.00273,"lon":120.74163,"name":"恆春基督教醫院","routes":["小黃公車717","小黃公車718","小黃公車721"]},"PIF307743":{"lat":22.00255,"lon":120.74167,"name":"恆春基督教醫院","routes":["小黃公車716","小黃公車718","小黃公車721"]},"PIF307744":{"lat":21.93631,"lon":120.71732,"name":"恆春白砂社區","routes":["小黃公車718"]},"PIF307745":{"lat":21.93648,"lon":120.7174,"name":"恆春白砂社區","routes":["小黃公車718"]},"PIF307746":{"lat":21.94532,"lon":120.71809,"name":"大茄苳","routes":["小黃公車718"]},"PIF307747":{"lat":21.94533,"lon":120.7182,"name":"大茄苳","routes":["小黃公車718"]},"PIF307748":{"lat":21.94924,"lon":120.72144,"name":"南樹林","routes":["小黃公車718"]},"PIF307749":{"lat":21.94923,"lon":120.72126,"name":"南樹林","routes":["小黃公車718"]},"PIF307750":{"lat":21.95456,"lon":120.72172,"name":"北樹林(預約站)","routes":["小黃公車718"]},"PIF307751":{"lat":21.95461,"lon":120.72172,"name":"北樹林(預約站)","routes":["小黃公車718"]},"PIF307754":{"lat":22.54949,"lon":120.44948,"name":"山隆宮","routes":["小黃公車712"]},"PIF307755":{"lat":22.54942,"lon":120.44944,"name":"山隆宮","routes":["小黃公車712"]},"PIF307756":{"lat":22.57572,"lon":120.459204,"name":"萬丹後村社區","routes":["小黃公車701"]},"PIF307757":{"lat":21.9695,"lon":120.7382,"name":"武天宮","routes":["小黃公車718"]},"PIF307758":{"lat":21.96943,"lon":120.73819,"name":"武天宮","routes":["小黃公車718"]},"PIF307759":{"lat":22.57577,"lon":120.45927,"name":"萬丹後村社區","routes":["小黃公車701"]},"PIF307760":{"lat":21.97099,"lon":120.73444,"name":"水泉國小龍泉分校","routes":["小黃公車718"]},"PIF307761":{"lat":21.97079,"lon":120.73442,"name":"水泉國小龍泉分校","routes":["小黃公車718"]},"PIF307762":{"lat":22.58969,"lon":120.46078,"name":"協元寺","routes":["小黃公車701"]},"PIF307763":{"lat":22.58969,"lon":120.46078,"name":"協元寺","routes":["小黃公車701"]},"PIF307764":{"lat":22.61519,"lon":120.46784,"name":"社皮國小","routes":["小黃公車701"]},"PIF307765":{"lat":22.61523,"lon":120.46774,"name":"社皮國小","routes":["小黃公車701"]},"PIF307766":{"lat":22.62181,"lon":120.46143,"name":"慈濟宮","routes":["小黃公車701"]},"PIF307767":{"lat":22.62183,"lon":120.46128,"name":"慈濟宮","routes":["小黃公車701"]},"PIF307768":{"lat":22.65979,"lon":120.49591,"name":"屏東縣民公園(預約站)","routes":["小黃公車701","小黃公車702","小黃公車703","小黃公車725"]},"PIF307769":{"lat":21.98133,"lon":120.73382,"name":"福鑾宮","routes":["小黃公車718"]},"PIF307770":{"lat":21.98126,"lon":120.73391,"name":"福鑾宮","routes":["小黃公車718"]},"PIF307771":{"lat":22.65979,"lon":120.49591,"name":"屏東縣民公園(預約站)","routes":["小黃公車701","小黃公車702","小黃公車703","小黃公車725"]},"PIF307772":{"lat":22.68681,"lon":120.48063,"name":"環保公園(預約站)","routes":["小黃公車701","小黃公車702","小黃公車703","小黃公車725"]},"PIF307773":{"lat":22.68192,"lon":120.497,"name":"仁愛公勤路口","routes":["小黃公車701","小黃公車702","小黃公車703","小黃公車725","小黃公車751"]},"PIF307774":{"lat":22.68182,"lon":120.49663,"name":"仁愛公勤路口","routes":["小黃公車701","小黃公車702","小黃公車703","小黃公車725","小黃公車751"]},"PIF307775":{"lat":21.99019,"lon":120.73238,"name":"光歲宮","routes":["小黃公車718"]},"PIF307776":{"lat":21.99017,"lon":120.73222,"name":"光歲宮","routes":["小黃公車718"]},"PIF307777":{"lat":22.57334,"lon":120.48639,"name":"萬丹水泉社區","routes":["小黃公車702"]},"PIF307778":{"lat":22.5734,"lon":120.48647,"name":"萬丹水泉社區","routes":["小黃公車702"]},"PIF307779":{"lat":22.58455,"lon":120.48892,"name":"萬丹鄉農會","routes":["小黃公車702"]},"PIF307780":{"lat":22.58435,"lon":120.48908,"name":"萬丹鄉農會","routes":["小黃公車702"]},"PIF307781":{"lat":22.54437,"lon":120.45256,"name":"新園田洋田隆宮","routes":["小黃公車712"]},"PIF307782":{"lat":22.5444,"lon":120.45258,"name":"新園田洋田隆宮","routes":["小黃公車712"]},"PIF307783":{"lat":22.53071,"lon":120.45314,"name":"大象公園","routes":["小黃公車712"]},"PIF307784":{"lat":22.53072,"lon":120.4531,"name":"大象公園","routes":["小黃公車712"]},"PIF307785":{"lat":22.52702,"lon":120.45266,"name":"新惠宮","routes":["小黃公車712"]},"PIF307786":{"lat":22.52698,"lon":120.45265,"name":"新惠宮","routes":["小黃公車712"]},"PIF307787":{"lat":22.51933,"lon":120.4523,"name":"南佛宮","routes":["小黃公車712"]},"PIF307788":{"lat":22.51936,"lon":120.45245,"name":"南佛宮","routes":["小黃公車712"]},"PIF307789":{"lat":22.50892,"lon":120.45539,"name":"港西國小","routes":["小黃公車712"]},"PIF307790":{"lat":22.50888,"lon":120.4555,"name":"港西國小","routes":["小黃公車712"]},"PIF307791":{"lat":22.50436,"lon":120.43632,"name":"澄瀛宮","routes":["小黃公車712"]},"PIF307792":{"lat":22.50437,"lon":120.43644,"name":"澄瀛宮","routes":["小黃公車712"]},"PIF307793":{"lat":22.58996,"lon":120.48465,"name":"萬丹鄉公所(預約站)","routes":["小黃公車702"]},"PIF307794":{"lat":22.58996,"lon":120.48465,"name":"萬丹鄉公所(預約站)","routes":["小黃公車702"]},"PIF307795":{"lat":22.59066,"lon":120.49065,"name":"萬丹保全宮","routes":["小黃公車702"]},"PIF307796":{"lat":22.61174,"lon":120.48836,"name":"萬丹廣安社區(預約站)","routes":["小黃公車702"]},"PIF307797":{"lat":22.61174,"lon":120.48818,"name":"萬丹廣安社區(預約站)","routes":["小黃公車702"]},"PIF307798":{"lat":22.62109,"lon":120.47121,"name":"社上建隆宮(預約站)","routes":["小黃公車702"]},"PIF307799":{"lat":22.63369,"lon":120.48741,"name":"國軍醫院","routes":["小黃公車703"]},"PIF307804":{"lat":22.47846,"lon":120.44019,"name":"新園鹽埔仔新興宮","routes":["小黃公車712","小黃公車736A"]},"PIF307805":{"lat":22.47857,"lon":120.44023,"name":"新園鹽埔仔新興宮","routes":["小黃公車712","小黃公車736A"]},"PIF307806":{"lat":22.47334,"lon":120.45966,"name":"東港安泰醫院","routes":["小黃公車712","小黃公車715"]},"PIF307807":{"lat":22.47347,"lon":120.45978,"name":"東港安泰醫院","routes":["小黃公車711","小黃公車712","小黃公車715","小黃公車739"]},"PIF307808":{"lat":22.60678,"lon":120.52048,"name":"六雲宮","routes":["小黃公車732"]},"PIF307809":{"lat":22.60683,"lon":120.52029,"name":"六雲宮","routes":["小黃公車732"]},"PIF307810":{"lat":22.61731,"lon":120.52319,"name":"客家文化中心","routes":["小黃公車732"]},"PIF307811":{"lat":22.61748,"lon":120.52325,"name":"客家文化中心","routes":["小黃公車732"]},"PIF307812":{"lat":22.65825,"lon":120.51448,"name":"國仁醫院","routes":["小黃公車703","小黃公車733"]},"PIF307813":{"lat":22.65825,"lon":120.51448,"name":"國仁醫院","routes":["小黃公車703"]},"PIF307814":{"lat":22.66389,"lon":120.50455,"name":"屏東大學民生校區(預約站)","routes":["小黃公車703","小黃公車705","小黃公車732","小黃公車733"]},"PIF307815":{"lat":22.66389,"lon":120.50406,"name":"屏東大學民生校區(預約站)","routes":["小黃公車703","小黃公車705","小黃公車732","小黃公車733"]},"PIF307816":{"lat":22.63208,"lon":120.59763,"name":"老埤五穀宮","routes":["小黃公車705"]},"PIF307817":{"lat":22.63197,"lon":120.59761,"name":"老埤五穀宮","routes":["小黃公車705"]},"PIF307818":{"lat":22.64115,"lon":120.59556,"name":"屏東科技大學","routes":["小黃公車705"]},"PIF307819":{"lat":22.64124,"lon":120.59545,"name":"屏東科技大學","routes":["小黃公車705"]},"PIF307820":{"lat":22.6464,"lon":120.58468,"name":"內埔東片社區","routes":["小黃公車705"]},"PIF307821":{"lat":22.64632,"lon":120.58467,"name":"內埔東片社區","routes":["小黃公車705"]},"PIF307822":{"lat":22.65057,"lon":120.57297,"name":"元帥宮","routes":["小黃公車705"]},"PIF307823":{"lat":22.65058,"lon":120.57304,"name":"元帥宮","routes":["小黃公車705"]},"PIF307824":{"lat":22.6593,"lon":120.56864,"name":"內埔建興社區","routes":["小黃公車705"]},"PIF307825":{"lat":22.65936,"lon":120.56864,"name":"內埔建興社區","routes":["小黃公車705"]},"PIF307826":{"lat":22.68201,"lon":120.54233,"name":"長治復興社區","routes":["小黃公車705"]},"PIF307827":{"lat":22.68201,"lon":120.54233,"name":"長治復興社區","routes":["小黃公車705"]},"PIF307828":{"lat":22.66972,"lon":120.5205,"name":"太子宮站","routes":["小黃公車705"]},"PIF307833":{"lat":22.6689,"lon":120.6001,"name":"龍泉","routes":["小黃公車706"]},"PIF307834":{"lat":22.66895,"lon":120.6003,"name":"龍泉","routes":["小黃公車706"]},"PIF307835":{"lat":22.67463,"lon":120.59975,"name":"榮總龍泉分院","routes":["小黃公車706"]},"PIF307836":{"lat":22.67463,"lon":120.59975,"name":"榮總龍泉分院","routes":["小黃公車706"]},"PIF307837":{"lat":22.68785,"lon":120.59667,"name":"黎明國小","routes":["小黃公車706"]},"PIF307838":{"lat":22.6877,"lon":120.59666,"name":"黎明國小","routes":["小黃公車706"]},"PIF307839":{"lat":22.69635,"lon":120.58596,"name":"百合部落園區","routes":["小黃公車706"]},"PIF307840":{"lat":22.69635,"lon":120.58596,"name":"百合部落園區","routes":["小黃公車706"]},"PIF307842":{"lat":22.69892,"lon":120.57727,"name":"惠迪宮(預約站)","routes":["小黃公車706"]},"PIF307843":{"lat":22.69884,"lon":120.57731,"name":"惠迪宮(預約站)","routes":["小黃公車706"]},"PIF307844":{"lat":22.70294,"lon":120.57895,"name":"鎮隆宮(預約站)","routes":["小黃公車706"]},"PIF307845":{"lat":22.70298,"lon":120.57892,"name":"鎮隆宮(預約站)","routes":["小黃公車706"]},"PIF307846":{"lat":22.70343,"lon":120.57473,"name":"保安宮(預約站)","routes":["小黃公車706"]},"PIF307847":{"lat":22.70348,"lon":120.57468,"name":"保安宮(預約站)","routes":["小黃公車706"]},"PIF307848":{"lat":22.68877,"lon":120.53261,"name":"福崙宮(預約站)","routes":["小黃公車706"]},"PIF307849":{"lat":22.68879,"lon":120.53286,"name":"福崙宮(預約站)","routes":["小黃公車706"]},"PIF307850":{"lat":22.681,"lon":120.51981,"name":"國王宮站(預約站)","routes":["小黃公車706"]},"PIF307851":{"lat":22.68093,"lon":120.51977,"name":"國王宮站(預約站)","routes":["小黃公車706"]},"PIF307852":{"lat":22.67884,"lon":120.52188,"name":"三座屋站(預約站)","routes":["小黃公車706"]},"PIF307853":{"lat":22.67869,"lon":120.52193,"name":"三座屋站(預約站)","routes":["小黃公車706"]},"PIF307856":{"lat":22.45581,"lon":120.5229,"name":"天隆宮","routes":["小黃公車715"]},"PIF307857":{"lat":22.45572,"lon":120.52288,"name":"天隆宮","routes":["小黃公車715"]},"PIF307860":{"lat":21.92879,"lon":120.7319,"name":"下水泉","routes":["小黃公車719"]},"PIF307861":{"lat":21.9288,"lon":120.73181,"name":"下水泉","routes":["小黃公車719"]},"PIF307862":{"lat":21.93525,"lon":120.73172,"name":"水泉","routes":["小黃公車719"]},"PIF307863":{"lat":21.93541,"lon":120.73163,"name":"水泉","routes":["小黃公車719"]},"PIF307868":{"lat":21.93976,"lon":120.73028,"name":"華山寺","routes":["小黃公車719"]},"PIF307869":{"lat":21.93981,"lon":120.7303,"name":"華山寺","routes":["小黃公車719"]},"PIF307870":{"lat":21.94531,"lon":120.73905,"name":"大窟尾","routes":["小黃公車719"]},"PIF307871":{"lat":21.94542,"lon":120.73896,"name":"大窟尾","routes":["小黃公車719"]},"PIF307872":{"lat":21.94988,"lon":120.74052,"name":"大光活動中心","routes":["小黃公車719"]},"PIF307873":{"lat":21.94991,"lon":120.74044,"name":"大光活動中心","routes":["小黃公車719"]},"PIF307874":{"lat":21.95293,"lon":120.74079,"name":"國宅前","routes":["小黃公車719"]},"PIF307875":{"lat":21.9529,"lon":120.74066,"name":"國宅前","routes":["小黃公車719"]},"PIF307876":{"lat":21.95966,"lon":120.73987,"name":"砂尾路","routes":["小黃公車719"]},"PIF307877":{"lat":21.95965,"lon":120.73982,"name":"砂尾路","routes":["小黃公車719"]},"PIF307878":{"lat":21.99904,"lon":120.74474,"name":"恆春旅遊醫院","routes":["小黃公車719","小黃公車720","小黃公車721"]},"PIF307879":{"lat":21.99904,"lon":120.74474,"name":"恆春旅遊醫院","routes":["小黃公車719","小黃公車720","小黃公車721"]},"PIF307880":{"lat":22.46111,"lon":120.53065,"name":"竹隆宮","routes":["小黃公車715"]},"PIF307881":{"lat":22.46101,"lon":120.53083,"name":"竹隆宮","routes":["小黃公車715"]},"PIF307882":{"lat":22.45643,"lon":120.50404,"name":"林邊鎮安社區","routes":["小黃公車715"]},"PIF307883":{"lat":22.45639,"lon":120.50391,"name":"林邊鎮安社區","routes":["小黃公車715"]},"PIF307886":{"lat":22.45611,"lon":120.49227,"name":"東港大潭社區","routes":["小黃公車715"]},"PIF307887":{"lat":22.46371,"lon":120.46748,"name":"東港船頭社區","routes":["小黃公車715"]},"PIF307888":{"lat":22.46163,"lon":120.46597,"name":"船頭里","routes":["小黃公車715"]},"PIF307891":{"lat":22.00103,"lon":120.74368,"name":"恆春農會","routes":["小黃公車719","小黃公車721"]},"PIF307892":{"lat":22.00114,"lon":120.74378,"name":"恆春農會","routes":["小黃公車721"]},"PIF307893":{"lat":22.00183,"lon":120.74264,"name":"恆春郵局","routes":["小黃公車719","小黃公車720","小黃公車721"]},"PIF307894":{"lat":22.00195,"lon":120.74255,"name":"恆春郵局","routes":["小黃公車719"]},"PIF307896":{"lat":22.00273,"lon":120.74163,"name":"恆春基督教醫院","routes":["小黃公車717","小黃公車719","小黃公車720","小黃公車722"]},"PIF307897":{"lat":22.00255,"lon":120.74167,"name":"恆春基督教醫院","routes":["小黃公車719","小黃公車720","小黃公車722"]},"PIF307898":{"lat":22.00283,"lon":120.74531,"name":"恆春轉運站","routes":["小黃公車719","小黃公車720"]},"PIF307899":{"lat":22.00291,"lon":120.74557,"name":"恆春轉運站","routes":["小黃公車719","小黃公車720"]},"PIF307900":{"lat":22.00369,"lon":120.74707,"name":"恆春鎮公所","routes":["小黃公車719","小黃公車720","小黃公車721"]},"PIF307901":{"lat":22.003722,"lon":120.74714,"name":"恆春鎮公所","routes":["小黃公車719","小黃公車720","小黃公車721"]},"PIF307911":{"lat":22.07196,"lon":120.71224,"name":"發美商店(預約站)","routes":["小黃公車716","小黃公車721"]},"PIF307912":{"lat":22.07256,"lon":120.71339,"name":"車城老人會","routes":["小黃公車716"]},"PIF307913":{"lat":22.0586,"lon":120.71263,"name":"福興宮","routes":["小黃公車716"]},"PIF307914":{"lat":22.0546,"lon":120.70735,"name":"車城射寮社區","routes":["小黃公車716"]},"PIF307915":{"lat":22.05346,"lon":120.71022,"name":"車城埔墘社區","routes":["小黃公車716"]},"PIF307916":{"lat":22.04359,"lon":120.71761,"name":"茄苳路","routes":["小黃公車716"]},"PIF307917":{"lat":22.03908,"lon":120.7165,"name":"尤氏宗祠","routes":["小黃公車716"]},"PIF307918":{"lat":22.03584,"lon":120.71684,"name":"茄湖","routes":["小黃公車716"]},"PIF307919":{"lat":22.02873,"lon":120.7182,"name":"頂頭溝商店","routes":["小黃公車716"]},"PIF307920":{"lat":22.01669,"lon":120.72153,"name":"三溝代巡宮","routes":["小黃公車716"]},"PIF307921":{"lat":22.01062,"lon":120.72742,"name":"恆春四溝社區","routes":["小黃公車716"]},"PIF307922":{"lat":22.00756,"lon":120.72405,"name":"四溝千鋒殿","routes":["小黃公車716"]},"PIF307923":{"lat":22.00239,"lon":120.72816,"name":"恆春德和社區","routes":["小黃公車716"]},"PIF307924":{"lat":21.9991,"lon":120.73122,"name":"翔鶴超商","routes":["小黃公車716","小黃公車718"]},"PIF307926":{"lat":22.43132,"lon":120.51582,"name":"林邊車站","routes":["小黃公車713","小黃公車739"]},"PIF307927":{"lat":22.41916,"lon":120.50568,"name":"林邊水利村辦公處","routes":["小黃公車713"]},"PIF307928":{"lat":22.42957,"lon":120.49046,"name":"林邊崎峰社區","routes":["小黃公車713","小黃公車739"]},"PIF307929":{"lat":22.44515,"lon":120.45859,"name":"青洲公園","routes":["小黃公車713"]},"PIF307930":{"lat":22.45669,"lon":120.45014,"name":"舊嘉蓮宮(預約站)","routes":["小黃公車713"]},"PIF307932":{"lat":22.46096,"lon":120.45224,"name":"共和新村一站","routes":["小黃公車713"]},"PIF307933":{"lat":22.4624,"lon":120.45347,"name":"共和新村二站","routes":["小黃公車713"]},"PIF307934":{"lat":22.45454,"lon":120.44866,"name":"嘉蓮社區(預約站)","routes":["小黃公車713"]},"PIF307935":{"lat":22.09587,"lon":120.74945,"name":"車城溫泉社區","routes":["小黃公車721"]},"PIF307936":{"lat":22.09593,"lon":120.74954,"name":"溫泉社區","routes":["小黃公車721"]},"PIF307937":{"lat":22.09284,"lon":120.74749,"name":"四重溪","routes":["小黃公車721"]},"PIF307938":{"lat":22.50084,"lon":120.57269,"name":"萬安福德祠","routes":["小黃公車710"]},"PIF307939":{"lat":22.49813,"lon":120.55672,"name":"三聖宮","routes":["小黃公車710"]},"PIF307942":{"lat":22.51139,"lon":120.53296,"name":"棋興宮(預約站)","routes":["小黃公車710"]},"PIF307943":{"lat":22.09282,"lon":120.74769,"name":"四重溪","routes":["小黃公車721"]},"PIF307944":{"lat":22.07205,"lon":120.72802,"name":"統埔","routes":["小黃公車721"]},"PIF307945":{"lat":22.07195,"lon":120.72804,"name":"統埔","routes":["小黃公車721"]},"PIF307946":{"lat":22.07259,"lon":120.7133,"name":"車城老人會(預約站)","routes":["小黃公車721"]},"PIF307947":{"lat":22.07256,"lon":120.71339,"name":"車城老人會(預約站)","routes":["小黃公車716","小黃公車721"]},"PIF307948":{"lat":22.07191,"lon":120.71233,"name":"發美商店(預約站)","routes":["小黃公車716","小黃公車721"]},"PIF307949":{"lat":22.07194,"lon":120.7112,"name":"車城興安社區(預約站)","routes":["小黃公車716","小黃公車721"]},"PIF307951":{"lat":22.06652,"lon":120.72832,"name":"山腳站","routes":["小黃公車721"]},"PIF307952":{"lat":22.06655,"lon":120.72839,"name":"山腳站","routes":["小黃公車721"]},"PIF307953":{"lat":22.05736,"lon":120.72522,"name":"車城保力社區","routes":["小黃公車721"]},"PIF307954":{"lat":22.0573,"lon":120.72524,"name":"車城保力社區","routes":["小黃公車721"]},"PIF307955":{"lat":22.04202,"lon":120.74211,"name":"虎頭山南安宮","routes":["小黃公車721"]},"PIF307956":{"lat":22.04199,"lon":120.74216,"name":"虎頭山南安宮","routes":["小黃公車721"]},"PIF307957":{"lat":22.03358,"lon":120.74175,"name":"恆春仁壽社區","routes":["小黃公車721"]},"PIF307958":{"lat":22.03368,"lon":120.74187,"name":"恆春仁壽社區","routes":["小黃公車721"]},"PIF307959":{"lat":22.02402,"lon":120.74763,"name":"紅雲宮","routes":["小黃公車717"]},"PIF307960":{"lat":22.02407,"lon":120.74774,"name":"紅雲宮","routes":["小黃公車717"]},"PIF307965":{"lat":21.95937,"lon":120.81526,"name":"恆春社頂社區","routes":["小黃公車720"]},"PIF307966":{"lat":21.9592,"lon":120.81526,"name":"恆春社頂社區","routes":["小黃公車720"]},"PIF307967":{"lat":21.95688,"lon":120.81257,"name":"墾丁公園","routes":["小黃公車720"]},"PIF307968":{"lat":21.95699,"lon":120.81263,"name":"墾丁公園","routes":["小黃公車720"]},"PIF307969":{"lat":21.94593,"lon":120.79365,"name":"墾丁牌樓","routes":["小黃公車720"]},"PIF307970":{"lat":21.94587,"lon":120.79496,"name":"墾丁牌樓","routes":["小黃公車720"]},"PIF307971":{"lat":21.96692,"lon":120.75727,"name":"馬鞍山","routes":["小黃公車720"]},"PIF307972":{"lat":21.967,"lon":120.75749,"name":"馬鞍山","routes":["小黃公車720"]},"PIF308086":{"lat":22.00064,"lon":120.70032,"name":"萬里桐","routes":["小黃公車722"]},"PIF308087":{"lat":21.99718,"lon":120.70483,"name":"山海商店","routes":["小黃公車722"]},"PIF308106":{"lat":21.98474,"lon":120.71383,"name":"蟳廣嘴社區","routes":["小黃公車722"]},"PIF308107":{"lat":21.97147,"lon":120.71687,"name":"南天宮","routes":["小黃公車722"]},"PIF308129":{"lat":22.46849,"lon":120.44522,"name":"東琉線碼頭站(預約站)","routes":["小黃公車712","小黃公車739"]},"PIF308130":{"lat":22.46849,"lon":120.44522,"name":"東琉線碼頭站(預約站)","routes":["小黃公車712","小黃公車739"]},"PIF308138":{"lat":22.71316,"lon":120.65302,"name":"山川琉璃吊橋","routes":["603"]},"PIF308139":{"lat":22.71302,"lon":120.65294,"name":"山川琉璃吊橋","routes":["603"]},"PIF308140":{"lat":22.71593,"lon":120.6542,"name":"三地門鄉公所","routes":["603"]},"PIF308155":{"lat":22.662461,"lon":120.631143,"name":"銘泉農場","routes":["603"]},"PIF308156":{"lat":22.57267,"lon":120.598122,"name":"屏東可可園區","routes":["603"]},"PIF308157":{"lat":22.726719,"lon":120.542514,"name":"大仁科技大學","routes":["511"]},"PIF308160":{"lat":22.023885,"lon":120.839553,"name":"滿州國中","routes":["304"]},"PIF308174":{"lat":22.762996,"lon":120.499046,"name":"昌榮社區","routes":["511"]},"PIF308175":{"lat":22.762988,"lon":120.499103,"name":"昌榮社區","routes":["511"]},"PIF308262":{"lat":22.662677,"lon":120.476091,"name":"屏東榮民總醫院","routes":["515","516","小黃公車701","小黃公車702","小黃公車703","小黃公車705","小黃公車706","小黃公車725","小黃公車732","小黃公車733"]},"PIF308274":{"lat":21.972585,"lon":120.7179,"name":"紅柴坑","routes":["102"]},"PIF308275":{"lat":21.972597,"lon":120.718011,"name":"紅柴坑","routes":["102"]},"PIF308479":{"lat":22.550897,"lon":120.536467,"name":"潮州轉運站","routes":["518","607"]},"PIF308480":{"lat":22.549798,"lon":120.5429747,"name":"潮州鎮公所","routes":["607"]},"PIF308481":{"lat":22.54966,"lon":120.54385,"name":"潮州鎮公所","routes":["607"]},"PIF308482":{"lat":22.54678,"lon":120.54905,"name":"潮州游泳池","routes":["607"]},"PIF308485":{"lat":22.526611,"lon":120.536252,"name":"潮州鐵道園區","routes":["607"]},"PIF308541":{"lat":22.5531,"lon":120.57767,"name":"四春三山國王廟","routes":["小黃公車708"]},"PIF308543":{"lat":22.54539,"lon":120.56846,"name":"泗林朝林宮","routes":["小黃公車708"]},"PIF308544":{"lat":22.5497,"lon":120.5659,"name":"泗林北極殿","routes":["小黃公車708"]},"PIF308545":{"lat":22.5258,"lon":120.63146,"name":"來義鄉公所","routes":["幸福來義10路","幸福來義9路"]},"PIF308546":{"lat":22.526103,"lon":120.636109,"name":"古樓社區集會所","routes":["幸福來義10路"]},"PIF308549":{"lat":22.67448,"lon":120.4879,"name":"林森信義路口","routes":["小黃公車701"]},"PIF308550":{"lat":22.6787,"lon":120.49176,"name":"幸福公園","routes":["小黃公車701"]},"PIF308551":{"lat":22.49399,"lon":120.5444,"name":"打鐵天后宮","routes":["小黃公車710"]},"PIF308554":{"lat":22.526103,"lon":120.636109,"name":"古樓社區集會所","routes":["幸福來義1路","幸福來義2路","幸福來義5路","幸福來義7路","幸福來義8路"]},"PIF308616":{"lat":22.488404,"lon":120.494915,"name":"番仔厝","routes":["519"]},"PIF308617":{"lat":22.488473,"lon":120.494758,"name":"番仔厝","routes":["519"]},"PIF308638":{"lat":22.568271,"lon":120.458105,"name":"井仔頭普安宮","routes":["小黃公車709"]},"PIF308639":{"lat":22.568271,"lon":120.458105,"name":"井仔頭普安宮","routes":["小黃公車709"]},"PIF308640":{"lat":22.567687,"lon":120.463575,"name":"萬丹灣內社區","routes":["小黃公車709"]},"PIF308641":{"lat":22.567687,"lon":120.463575,"name":"萬丹灣內社區","routes":["小黃公車709"]},"PIF308643":{"lat":22.550959,"lon":120.473126,"name":"新園瓦磘社區","routes":["小黃公車709"]},"PIF308644":{"lat":22.550959,"lon":120.473126,"name":"新園瓦磘社區","routes":["小黃公車709"]},"PIF308645":{"lat":22.550001,"lon":120.469765,"name":"後隆宮","routes":["小黃公車709"]},"PIF308646":{"lat":22.550001,"lon":120.469765,"name":"後隆宮","routes":["小黃公車709"]},"PIF308647":{"lat":22.47766,"lon":120.56235,"name":"新埤建功社區(預約站)","routes":["小黃公車710","小黃公車715"]},"PIF308648":{"lat":22.47772,"lon":120.5623,"name":"新埤建功社區(預約站)","routes":["小黃公車710","小黃公車715"]},"PIF308649":{"lat":22.48388,"lon":120.56488,"name":"新埤國中","routes":["小黃公車710"]},"PIF308650":{"lat":22.48388,"lon":120.56488,"name":"新埤國中","routes":["小黃公車710"]},"PIF308651":{"lat":22.50335,"lon":120.54644,"name":"新埤打鐵寮社區","routes":["小黃公車710"]},"PIF308652":{"lat":22.50335,"lon":120.54644,"name":"新埤打鐵寮社區","routes":["小黃公車710"]},"PIF308658":{"lat":22.50851,"lon":120.53418,"name":"潮州檨子里社區","routes":["小黃公車710"]},"PIF308659":{"lat":22.50851,"lon":120.53418,"name":"潮州檨子里社區","routes":["小黃公車710"]},"PIF308660":{"lat":22.53361,"lon":120.53959,"name":"潮好玩幸福村(預約站)","routes":["小黃公車710"]},"PIF308661":{"lat":22.53361,"lon":120.53959,"name":"潮好玩幸福村(預約站)","routes":["小黃公車710"]},"PIF308664":{"lat":22.545529,"lon":120.473513,"name":"下瓦磘福德祠(預約站)","routes":["小黃公車709"]},"PIF308665":{"lat":22.545484,"lon":120.47358,"name":"下瓦磘福德祠(預約站)","routes":["小黃公車709"]},"PIF308666":{"lat":22.555334,"lon":120.474616,"name":"福隆宮","routes":["小黃公車709"]},"PIF308667":{"lat":22.555334,"lon":120.474616,"name":"福隆宮","routes":["小黃公車709"]},"PIF308673":{"lat":22.549764,"lon":120.542977,"name":"潮州鎮公所","routes":["小黃公車709"]},"PIF308674":{"lat":22.549764,"lon":120.542977,"name":"潮州鎮公所","routes":["小黃公車709"]},"PIF308675":{"lat":22.55399,"lon":120.546891,"name":"潮州安泰醫院","routes":["小黃公車709"]},"PIF308676":{"lat":22.554051,"lon":120.546792,"name":"潮州安泰醫院","routes":["小黃公車709"]},"PIF308677":{"lat":22.55087,"lon":120.53633,"name":"潮州轉運站","routes":["小黃公車709"]},"PIF308685":{"lat":22.488176,"lon":120.484229,"name":"興和社區","routes":["519"]},"PIF308686":{"lat":22.488081,"lon":120.484267,"name":"興和社區","routes":["519"]},"PIF308694":{"lat":22.571005,"lon":120.517549,"name":"上港尾","routes":["517"]},"PIF308780":{"lat":22.81271,"lon":120.50545,"name":"里港三廍社區(預約站)","routes":["727"]},"PIF308781":{"lat":22.82098,"lon":120.50672,"name":"里港土庫社區(三和國小)(預約站)","routes":["727"]},"PIF308782":{"lat":22.820924,"lon":120.506478,"name":"里港土庫社區(三和國小)(預約站)","routes":["727"]},"PIF308783":{"lat":22.81261,"lon":120.50542,"name":"里港三廍社區(預約站)","routes":["727"]},"PIF308784":{"lat":22.822241,"lon":120.491326,"name":"里港瀰力社區","routes":["727"]},"PIF308785":{"lat":22.82225,"lon":120.49156,"name":"里港瀰力社區","routes":["727"]},"PIF308786":{"lat":22.807746,"lon":120.488825,"name":"里港社會關懷協會","routes":["727"]},"PIF308787":{"lat":22.80774,"lon":120.48895,"name":"里港社會關懷協會","routes":["727"]},"PIF308788":{"lat":22.80775,"lon":120.49274,"name":"土庫國小","routes":["727"]},"PIF308789":{"lat":22.807873,"lon":120.492745,"name":"土庫國小","routes":["727"]},"PIF308790":{"lat":22.7864,"lon":120.50746,"name":"福興興隆宮","routes":["727"]},"PIF308791":{"lat":22.786549,"lon":120.507431,"name":"福興興隆宮","routes":["727"]},"PIF308792":{"lat":22.78419,"lon":120.53038,"name":"里港載新社區","routes":["727"]},"PIF308793":{"lat":22.784179,"lon":120.530373,"name":"里港載新社區","routes":["727"]},"PIF308794":{"lat":22.77709,"lon":120.51598,"name":"茄苳慈后宮","routes":["727"]},"PIF308795":{"lat":22.777046,"lon":120.516074,"name":"茄苳慈后宮","routes":["727"]},"PIF308796":{"lat":22.77112,"lon":120.51482,"name":"武洛福安宮","routes":["727"]},"PIF308797":{"lat":22.77112,"lon":120.51482,"name":"武洛福安宮","routes":["727"]},"PIF308798":{"lat":22.59606,"lon":120.46162,"name":"萬丹下蚶南聖宮","routes":["小黃公車701"]},"PIF308799":{"lat":22.59925,"lon":120.46238,"name":"普庵壇下蚶董公廟","routes":["小黃公車701"]},"PIF308800":{"lat":22.6001,"lon":120.46682,"name":"萬丹廈北社區","routes":["小黃公車701"]},"PIF308801":{"lat":22.77179,"lon":120.49564,"name":"里港市場","routes":["727"]},"PIF308802":{"lat":22.771781,"lon":120.495737,"name":"里港市場","routes":["727"]},"PIF308803":{"lat":22.77925,"lon":120.49423,"name":"里港鄉衛生所","routes":["727"]},"PIF308804":{"lat":22.778983,"lon":120.494044,"name":"里港鄉衛生所","routes":["727"]},"PIF308805":{"lat":22.77459,"lon":120.489771,"name":"里港玉田社區","routes":["727"]},"PIF308806":{"lat":22.77456,"lon":120.48968,"name":"里港玉田社區","routes":["727"]},"PIF308807":{"lat":22.77252,"lon":120.479896,"name":"潮厝慈濟宮","routes":["727"]},"PIF308808":{"lat":22.77246,"lon":120.47995,"name":"潮厝慈濟宮","routes":["727"]},"PIF308809":{"lat":22.762803,"lon":120.48412,"name":"里港塔樓社區(預約站)","routes":["727"]},"PIF308810":{"lat":22.76282,"lon":120.48418,"name":"里港塔樓社區(預約站)","routes":["727"]},"PIF308811":{"lat":22.734515,"lon":120.489144,"name":"九如社福館(圖書館)(預約站)","routes":["727"]},"PIF308812":{"lat":22.73451,"lon":120.4894,"name":"九如社福館(圖書館)(預約站)","routes":["727"]},"PIF308814":{"lat":22.76279,"lon":120.49943,"name":"九如昌榮社區","routes":["小黃公車726"]},"PIF308815":{"lat":22.76279,"lon":120.49943,"name":"九如昌榮社區","routes":["小黃公車726"]},"PIF308816":{"lat":22.75847,"lon":120.4952,"name":"九如耆老老人會","routes":["小黃公車726"]},"PIF308817":{"lat":22.75861,"lon":120.4953,"name":"九如耆老老人會","routes":["小黃公車726"]},"PIF308818":{"lat":22.74867,"lon":120.5013,"name":"後庄清聖宮","routes":["小黃公車726"]},"PIF308819":{"lat":22.74874,"lon":120.50146,"name":"後庄清聖宮","routes":["小黃公車726"]},"PIF308820":{"lat":22.74619,"lon":120.50146,"name":"九如後庄代天府","routes":["小黃公車726"]},"PIF308821":{"lat":22.74619,"lon":120.50146,"name":"九如後庄代天府","routes":["小黃公車726"]},"PIF308822":{"lat":22.73491,"lon":120.49687,"name":"九如東寧社區","routes":["小黃公車726"]},"PIF308823":{"lat":22.73491,"lon":120.49687,"name":"九如東寧社區","routes":["小黃公車726"]},"PIF308824":{"lat":22.71568,"lon":120.51968,"name":"九如圳寮老人會","routes":["小黃公車726"]},"PIF308825":{"lat":22.71571,"lon":120.51956,"name":"九如圳寮老人會","routes":["小黃公車726"]},"PIF308826":{"lat":22.7251,"lon":120.50564,"name":"九如中庄社區","routes":["小黃公車726"]},